~Version Information
 VERS  .     3.00 : LOG ASCII STANDARD -VERSION 3.0
 WRAP  .     NO   : ONE LINE PER DEPTH STEP
 DLM   .    SPACE : DELIMITING CHARACTER BETWEEN DATA COLUMNS
~WELL INFORMATION
#MNEM  .UNIT        DATA TYPE                  INFORMATION
#------.------ ----------------------------- : -------------------------
 STRT  .F          466.0000                  : START DEPTH
 STOP  .F         3750.0000                  : STOP DEPTH
 STEP  .F            0.5000                  : STEP LENGTH
 NULL  .          -999.2500                  : NO VALUE
 COMP  .      BAILEY-SLBURN OIL & GAS LTD.   : COMPANY
 WELL  .      BAYSEL RETLAW 6-8-13-18        : WELL
 FLD   .      RETLAW                         : FIELD
 LOC   .      06-08-013-18W4                 : LOCATION
 PROV  .      ALBERTA                        : PROVINCE
 SRVC  .      SCHLUMBERGER                   : SERVICE COMPANY
 DATE  .      OCT-19-1964                    : LOGDATE
 UWI   .      100060801318W400               : UNIQUE WELL ID
 LIC   .      0026947                        : LICENSE NO.
~CURVE INFORMATION
#MNEM  .UNIT        API CODE                   CURVE DESCRIPTION
#------.------ ----------------------------- : -------------------------
 DEPT  .F                                    : 
 SP    .mv       07 010 01 00                : Spontaneous Potential
 SN    .ohmm     05 040 16 00                : Short Normal 16"
 LN    .ohmm     05 060 64 00                : Long Normal 64"
 GR    .gapi     60 310 00 00                : Gamma Ray
 DT    .us/f     60 520 00 00                : Delta t
~PARAMETER INFORMATION
#MNEM  .UNIT        VALUE                      DESCRIPTION
#------.------ ----------------------------- : -------------------------
 EKB   .F           2699.0000                : Kelly bushing
 EGL   .F           2686.0000                : Ground level
 EDF   .F           0.0000                   : Drilling floor
 EPD   .F           2686.0000                : Permanent datum
 TD    .F           3750.0000                : Total depth
 DATE  .mm/dd/yyyy  OCT-19-1964              : Date Logged
 DD    .ft          3750                     : Depth Driller
 DL    .ft          3761                     : Depth Logger
 BLI   .ft          3750                     : Bottom Log Interval
 TLI   .ft          466                      : Top Log Interval
 CTD1  .ft          466                      : Casing Driller 1
 CTL1  .ft          466                      : Casing Logger 1
 BS    .inch        7 7/8                    : Bit Size
 DFT   .            POLY PLASTIC             : Type Fluid In Hole
 DFD   .lb/gal      10.9                     : Mud Weight
 DFV   .sec         74                       : Viscosity
 DFPH  .            9.5                      : pH
 DFL   .gal         3.2                      : Fluid Loss
 RM    .ohmm        1.51                     : Rm
 EMT   .F           67                       : Rm Meas. Temp.
 RMF   .ohmm        1.05                     : Rmf
 MFT   .F           80                       : Rmf Meas. Temp.
 RMC   .ohmm        3.0                      : Rmc
 MCST  .F           78                       : Rmc Meas. Temp.
 RMB   .ohmm        1.18                     : Rm. At BHT
 BHT   .F           86                       : BHT.
~TOPS_Definition
 TOPN.        :  Top Name     {S} 
 TOPT.F       :  Top Depth    {F} 
~TOPS_Data | TOPS_Definition
 Kpakowki             865.2  
 Kmilk_rv             1029.9  
 Kcolorado            1423.9  
 Kmed_hat             1583.0  
 K2nd_ws              2319.9  
 K2WS_SS_CW           2371.4  
 KBFS_CW              2584.0  
 Kbfs                 2584.0  
 Kbow_isl             2659.4  
 Kbi_ss               2685.4  
 Kbsl_colo            3085.0  
 Kmannvl              3101.4  
 Kmannvl_CW           3101.7  
 Kmannvl_UBeow CLNY MKR 3181.4  
 KMNVL_MID MKR - BROWN PICK_CW  3260.8  
 MNVL Teal Marker     3327.4  
 Kmann_GP CH Llithic_TOP(Green) 3378.9  
 Kmann_GP CH Lithic_Base 3446.5  
 KmannUmkr            3448.2  
 Kglauc_ss            3494.4  
 KGLAUC_SS_CW         3496.1  
 KglaucCHSS           3516.7  
 Kglauc CHSS Base     3597.8  
 Kostracod            3600.1  
 Ksunburst            3602.7  
 KSunburst CH Sand    3628.0  
 MLivingstn_CW        3735.9  
 Mlivngstn            3737.9  
~Ascii       DEPTH           SP           SN           LN           GR           DT
# ...
     2646.5000       -32.3390         7.7910         5.5600       118.6860        94.9720
     2647.0000       -32.5250         8.0410         5.7570       115.4020        98.3830
     2647.5000       -32.8390         8.1980         5.9540       121.3920        97.5540
     2648.0000       -33.0780         8.1920         6.1470       126.7310        95.6460
     2648.5000       -33.1050         8.2710         6.3500       125.6280        92.7280
     2649.0000       -33.1130         8.4240         6.4670       127.4460        93.0260
     2649.5000       -33.3680         8.5410         6.3160       126.4880        93.3230
     2650.0000       -33.4330         8.7010         6.0610       122.2510        94.7120
     2650.5000       -33.0700         8.7860         5.9500       120.5900        96.4350
     2651.0000       -32.9060         8.5970         5.9330       122.0710        98.3470
     2651.5000       -32.9800         8.3780         5.9060       122.6060       101.4580
     2652.0000       -33.0290         8.1500         5.8780       123.1720       100.8120
     2652.5000       -33.0880         7.9180         5.8610       125.0410        99.0770
     2653.0000       -32.9810         7.7330         5.7700       127.4820        99.0770
     2653.5000       -32.7830         7.6430         5.6160       127.6440        99.5310
     2654.0000       -32.7360         7.5480         5.4620       126.6260       100.2540
     2654.5000       -32.8640         7.4580         5.4390       126.0350       101.0620
     2655.0000       -32.9700         7.3630         5.4290       123.9290       101.4090
     2655.5000       -33.0710         7.3230         5.3870       118.0060       100.4940
     2656.0000       -32.8020         7.3390         5.3510       119.7710        98.7800
     2656.5000       -32.4170         7.4260         5.3180       120.3340        99.5340
     2657.0000       -32.1130         7.5860         5.2830       117.9190       100.5650
     2657.5000       -31.9610         7.6710         5.2450       115.1770        97.7880
     2658.0000       -32.0200         7.5980         5.2070       119.2430       100.1530
     2658.5000       -32.3090         7.5950         5.1700       124.9180       102.0540
     2659.0000       -32.6020         7.5580         5.1310       125.3590       102.4500
     2659.5000       -32.7960         7.4430         5.1200       126.4630       102.4500
     2660.0000       -32.8970         7.2560         5.1160       124.4530       102.2520
     2660.5000       -32.8340         7.1660         5.1360       121.2000        99.3950
     2661.0000       -32.8000         7.1310         5.2410       125.9430        95.1090
     2661.5000       -32.7500         7.2290         5.3070       123.0690        94.5140
     2662.0000       -32.7080         7.5050         5.3600       113.8280        93.8810
     2662.5000       -32.6640         7.9030         5.4770       119.3980        93.1250
     2663.0000       -32.6170         8.0790         5.6700       118.1650        93.3230
     2663.5000       -32.5780         8.3390         5.8930       113.5170        95.8300
     2664.0000       -32.5210         8.5550         6.0220       114.0920        97.8030
     2664.5000       -32.5480         8.4980         6.0830       113.4890        97.4900
     2665.0000       -32.7220         8.3010         6.1300       117.5680        97.5730
     2665.5000       -32.8890         8.1640         6.0100       116.0830        97.8540
     2666.0000       -33.0450         8.0420         5.8770       113.1950        97.8870
     2666.5000       -32.9320         7.9310         5.7470       114.0920        97.6980
     2667.0000       -32.6200         7.8120         5.6160       119.1850        97.9030
     2667.5000       -32.5980         7.6970         5.4860       123.6930        98.7470
     2668.0000       -32.9190         7.5800         5.3560       122.4930        99.5730
     2668.5000       -33.2090         7.4640         5.2240       122.0510        99.7070
     2669.0000       -33.4800         7.3480         5.0950       123.5620        99.4740
     2669.5000       -33.4990         7.2330         5.0670       125.1040        99.6660
     2670.0000       -33.5120         7.1140         5.0340       125.9330        99.9700
     2670.5000       -33.7600         7.0850         4.9980       124.5910        99.1920
     2671.0000       -34.0790         7.0890         4.9620       126.9210        98.4840
     2671.5000       -34.3870         7.0870         4.9270       125.1200        97.8870
     2672.0000       -34.6970         7.0890         4.8910       122.3590        99.1160
     2672.5000       -35.0090         7.0840         4.8560       120.2990        99.9700
     2673.0000       -35.3150         7.0250         4.8190       114.7500       100.9380
     2673.5000       -35.6570         6.9570         4.7850       110.7480       101.7480
     2674.0000       -35.5850         6.8870         4.7460       111.4690       102.5580
     2674.5000       -35.4010         6.8000         4.7230       112.1070       103.0060
     2675.0000       -35.2310         6.7100         4.6920       117.7570       103.8450
     2675.5000       -35.1200         6.6210         4.6150       122.2950       105.1290
     2676.0000       -35.3140         6.5310         4.5480       120.5220       103.1450
     2676.5000       -35.4570         6.4420         4.4780       117.8970       104.0980
     2677.0000       -35.6710         6.3510         4.3730       118.0200       105.3780
     2677.5000       -35.4580         6.2820         4.1800       116.7030       107.4110
     2678.0000       -35.0910         6.2500         4.0820       113.2700       105.9190
     2678.5000       -35.5050         6.2180         4.3220       111.7450       102.2980
     2679.0000       -35.8380         6.2050         4.6260       111.6180        98.6760
     2679.5000       -36.1520         6.2120         4.8490       112.7970        95.0550
     2680.0000       -36.4550         6.3260         4.7500       110.2770        91.7770
     2680.5000       -36.7750         6.3070         4.4880       105.6560        89.9500
     2681.0000       -36.9030         6.2050         3.7830       118.7730        91.9350
     2681.5000       -36.4830         6.1360         3.2480       130.4610       103.3380
     2682.0000       -35.9100         6.0060         2.9820       142.8710       113.5620
     2682.5000       -35.3560         5.4240         2.7680       155.7430       111.7760
     2683.0000       -34.7620         4.7790         2.7010       164.8490       107.9810
     2683.5000       -34.5940         4.4590         2.7390       162.4350       102.5660
     2684.0000       -34.4980         4.6020         2.9160       139.1500        95.0160
     2684.5000       -34.3690         4.8830         3.0850       119.6370        86.5770
     2685.0000       -34.2830         5.4830         3.2830       107.0960        80.5190
     2685.5000       -34.3470         6.9470         3.7330        95.2040        77.0540
     2686.0000       -34.8000         8.6130         4.6490        92.5400        79.1340
     2686.5000       -35.2560         9.8770         6.4410        99.0890        81.3910
     2687.0000       -35.3050        10.3830         7.9140       105.2180        83.6010
     2687.5000       -35.3000        10.5820         9.8450       106.2280        83.8000
     2688.0000       -35.2190        10.3910        10.0030       102.8650        84.0350
     2688.5000       -34.9820        10.2420         9.6340        97.4970        84.2960
     2689.0000       -35.0220        10.2910         9.3050        95.2430        84.2960
     2689.5000       -35.4040        10.3540         8.9440        95.1840        84.0950
     2690.0000       -35.7340        10.4200         8.6910       100.4160        83.0060
     2690.5000       -36.1210        10.4730         8.5600       104.5940        83.3380
