~Version Information
 VERS  .     3.00 : LOG ASCII STANDARD -VERSION 3.0
 WRAP  .     NO   : ONE LINE PER DEPTH STEP
 DLM   .    SPACE : DELIMITING CHARACTER BETWEEN DATA COLUMNS
~WELL INFORMATION
#MNEM  .UNIT        DATA TYPE                  INFORMATION
#------.------ ----------------------------- : -------------------------
 STRT  .F          466.0000                  : START DEPTH
 STOP  .F         3750.0000                  : STOP DEPTH
 STEP  .F            0.5000                  : STEP LENGTH
 NULL  .          -999.2500                  : NO VALUE
 COMP  .      BAILEY-SLBURN OIL & GAS LTD.   : COMPANY
 WELL  .      BAYSEL RETLAW 6-8-13-18        : WELL
 FLD   .      RETLAW                         : FIELD
 LOC   .      06-08-013-18W4                 : LOCATION
 PROV  .      ALBERTA                        : PROVINCE
 SRVC  .      SCHLUMBERGER                   : SERVICE COMPANY
 DATE  .      OCT-19-1964                    : LOGDATE
 UWI   .      100060801318W400               : UNIQUE WELL ID
 LIC   .      0026947                        : LICENSE NO.
~CURVE INFORMATION
#MNEM  .UNIT        API CODE                   CURVE DESCRIPTION
#------.------ ----------------------------- : -------------------------
 DEPT  .F                                    : 
 SP    .mv       07 010 01 00                : Spontaneous Potential
 SN    .ohmm     05 040 16 00                : Short Normal 16"
 LN    .ohmm     05 060 64 00                : Long Normal 64"
 GR    .gapi     60 310 00 00                : Gamma Ray
 DT    .us/f     60 520 00 00                : Delta t
~PARAMETER INFORMATION
#MNEM  .UNIT        VALUE                      DESCRIPTION
#------.------ ----------------------------- : -------------------------
 EKB   .F           2699.0000                : Kelly bushing
 EGL   .F           2686.0000                : Ground level
 EDF   .F           0.0000                   : Drilling floor
 EPD   .F           2686.0000                : Permanent datum
 TD    .F           3750.0000                : Total depth
 DATE  .mm/dd/yyyy  OCT-19-1964              : Date Logged
 DD    .ft          3750                     : Depth Driller
 DL    .ft          3761                     : Depth Logger
 BLI   .ft          3750                     : Bottom Log Interval
 TLI   .ft          466                      : Top Log Interval
 CTD1  .ft          466                      : Casing Driller 1
 CTL1  .ft          466                      : Casing Logger 1
 BS    .inch        7 7/8                    : Bit Size
 DFT   .            POLY PLASTIC             : Type Fluid In Hole
 DFD   .lb/gal      10.9                     : Mud Weight
 DFV   .sec         74                       : Viscosity
 DFPH  .            9.5                      : pH
 DFL   .gal         3.2                      : Fluid Loss
 RM    .ohmm        1.51                     : Rm
 EMT   .F           67                       : Rm Meas. Temp.
 RMF   .ohmm        1.05                     : Rmf
 MFT   .F           80                       : Rmf Meas. Temp.
 RMC   .ohmm        3.0                      : Rmc
 MCST  .F           78                       : Rmc Meas. Temp.
 RMB   .ohmm        1.18                     : Rm. At BHT
 BHT   .F           86                       : BHT.
~TOPS_Definition
 TOPN.        :  Top Name     {S} 
 TOPT.F       :  Top Depth    {F} 
~TOPS_Data | TOPS_Definition
 Kpakowki             865.2  
 Kmilk_rv             1029.9  
 Kcolorado            1423.9  
 Kmed_hat             1583.0  
 K2nd_ws              2319.9  
 K2WS_SS_CW           2371.4  
 KBFS_CW              2584.0  
 Kbfs                 2584.0  
 Kbow_isl             2659.4  
 Kbi_ss               2685.4  
 Kbsl_colo            3085.0  
 Kmannvl              3101.4  
 Kmannvl_CW           3101.7  
 Kmannvl_UBeow CLNY MKR 3181.4  
 KMNVL_MID MKR - BROWN PICK_CW  3260.8  
 MNVL Teal Marker     3327.4  
 Kmann_GP CH Llithic_TOP(Green) 3378.9  
 Kmann_GP CH Lithic_Base 3446.5  
 KmannUmkr            3448.2  
 Kglauc_ss            3494.4  
 KGLAUC_SS_CW         3496.1  
 KglaucCHSS           3516.7  
 Kglauc CHSS Base     3597.8  
 Kostracod            3600.1  
 Ksunburst            3602.7  
 KSunburst CH Sand    3628.0  
 MLivingstn_CW        3735.9  
 Mlivngstn            3737.9  
~Ascii       DEPTH           SP           SN           LN           GR           DT
# ...
      911.0000       -34.4480         5.1250         3.6920        91.0820       119.3600
      911.5000       -34.4760         5.0640         3.6730        93.5530       119.7440
      912.0000       -34.2460         4.9800         3.6560        95.8200       120.1270
      912.5000       -34.0490         4.8990         3.6370        97.4100       119.8900
      913.0000       -33.8590         4.8270         3.6210        97.9700       119.4280
      913.5000       -33.6220         4.8350         3.6190        95.6500       118.9660
      914.0000       -33.7250         4.8530         3.6250        91.8540       118.5040
      914.5000       -34.0310         4.8680         3.6790        87.1390       117.7390
      915.0000       -34.4970         4.8850         3.7380        84.4310       118.1230
      915.5000       -35.1480         4.8990         3.7960        85.9030       119.0340
      916.0000       -35.4920         4.9190         3.8550        87.1040       118.5790
      916.5000       -35.5210         4.9280         3.9140        88.6080       117.3890
      917.0000       -35.4210         4.9670         3.9730        89.8810       116.1990
      917.5000       -35.3470         4.9920         4.0310        91.4200       114.9500
      918.0000       -35.2640         5.1530         4.0900        89.9200       114.8570
      918.5000       -35.1830         5.4120         4.1430        85.4760       114.6530
      919.0000       -35.1760         5.6540         4.2190        87.4310       114.4500
      919.5000       -35.2160         5.7420         4.2000        92.3610       114.4050
      920.0000       -35.2420         5.7130         4.0250        96.9730       115.3650
      920.5000       -35.2770         5.6840         3.8380        99.5110       117.0580
      921.0000       -35.3020         5.4940         3.7160        97.0550       118.7520
      921.5000       -35.3440         5.3180         3.6600        88.7180       120.4450
      922.0000       -35.3030         5.1400         3.5290        90.1500       122.1380
      922.5000       -35.0880         4.9570         3.5430        91.8350       124.4120
      923.0000       -34.9080         4.8170         3.5380        92.3180       123.3890
      923.5000       -34.6640         4.7650         3.5350        92.4580       122.1220
      924.0000       -34.6460         4.7170         3.5480        90.6780       122.3020
      924.5000       -34.9230         4.6750         3.4800        87.6110       122.4200
      925.0000       -35.2090         4.6260         3.4490        84.7880       118.4360
      925.5000       -35.3630         4.7520         3.7790        84.8170       119.8310
      926.0000       -35.3030         4.9490         4.0570        85.7680       121.6240
      926.5000       -35.2830         5.1580         4.3480        86.6230       120.7550
      927.0000       -35.2400         5.4350         4.6320        87.4640       117.8950
      927.5000       -35.2150         5.7750         4.9620        88.4170       115.0360
      928.0000       -35.1690         6.1130         5.5480        87.2330       112.1770
      928.5000       -35.2140         6.6270         6.2930        84.7820       109.3180
      929.0000       -35.3720         7.4940         7.0180        82.1170       106.4590
      929.5000       -35.6960         8.3300         7.7440        79.7850       103.6000
      930.0000       -36.0340         9.2860         8.4750        73.4410       101.6430
      930.5000       -36.4080         9.8740         9.1930        74.5400       100.8310
      931.0000       -36.4970         9.9280         9.9340        76.6990       100.0100
      931.5000       -36.2950        10.1050        10.6480        77.8180        98.3430
      932.0000       -36.1880        10.2910        11.3590        78.5070        96.6590
      932.5000       -36.2890        10.4590        12.2820        74.6090        94.9760
      933.0000       -36.4420        10.8480        13.0450        71.5440        92.5400
      933.5000       -36.5370        11.5690        12.9920        72.3890        88.7550
      934.0000       -36.5760        12.2320        13.0520        74.0750        85.8670
      934.5000       -36.3700        12.9250        12.9920        75.2580        86.2650
      935.0000       -36.0120        13.0050        12.9850        76.7230        86.4640
      935.5000       -35.6720        12.8830        12.5800        75.0820        87.6590
      936.0000       -35.6180        12.3880        11.7040        72.7440        89.3530
      936.5000       -35.7900        11.9620        10.8790        76.4620        91.0460
      937.0000       -35.9050        11.5060        10.0100        77.4890        92.6390
      937.5000       -36.0550        11.0540         9.2320        70.3640        93.4860
      938.0000       -36.1400        10.6090         8.9480        67.3300        94.3330
      938.5000       -36.0670        10.1410         8.8140        71.3940        94.8310
      939.0000       -35.9950         9.8630         8.7310        74.6820        95.8270
      939.5000       -35.9200         9.7660         8.6340        78.3910        96.5240
      940.0000       -35.8480         9.6390         8.5430        81.9380        97.4200
      940.5000       -35.7690         9.5280         8.4500        86.2150        97.7190
      941.0000       -35.8450         9.4080         8.3580        85.5440        97.3210
      941.5000       -35.9740         9.2940         8.2680        80.0770        97.0220
      942.0000       -36.0920         9.1740         8.1640        77.1580        97.0220
      942.5000       -36.2150         9.0630         7.9410        79.9340        97.0220
      943.0000       -36.3420         8.9360         7.7200        78.1670        97.8190
      943.5000       -36.3450         8.8400         7.5000        74.4440        98.3170
      944.0000       -36.0580         8.6030         7.2790        77.8100        99.2130
      944.5000       -35.6840         8.2610         7.0590        83.7180       100.0100
      945.0000       -35.3240         7.9540         6.8380        83.0590       101.3050
      945.5000       -34.9560         7.6340         6.6180        79.7820       102.9980
      946.0000       -34.5980         7.3150         6.3950        76.8680       104.1930
      946.5000       -34.5500         7.0540         6.1780        75.1370       105.4880
      947.0000       -34.5820         6.9430         5.9490        79.2430       107.1810
      947.5000       -34.8410         6.8380         5.7850        82.0670       108.4760
      948.0000       -35.1720         6.8000         5.7720        84.9560       108.7750
      948.5000       -35.4700         6.8580         5.6970        87.2370       108.2160
      949.0000       -35.8140         6.8980         5.6120        90.1130       107.7370
      949.5000       -35.9300         6.9440         5.7340        89.1770       107.2580
      950.0000       -35.8110         6.9970         5.8640        86.8650       106.7790
      950.5000       -35.7310         7.1560         5.9940        84.6730       106.3000
      951.0000       -35.6290         7.2930         6.1180        83.6630       105.8210
      951.5000       -35.5420         7.4360         6.2600        85.8990       105.0900
      952.0000       -35.4420         7.5710         6.3530        84.2350       104.4920
      952.5000       -35.3810         7.7290         6.2960        85.0030       103.7950
      953.0000       -35.5550         7.6930         6.1650        86.9510       104.0940
      953.5000       -35.7330         7.5200         6.0260        86.0920       104.8900
      954.0000       -35.9310         7.3550         5.8900        85.3600       105.8860
      954.5000       -36.0880         7.1880         5.7510        84.2750       108.5760
      955.0000       -36.3220         7.0160         5.6170        83.6210       109.6710
