~Version Information
 VERS  .     3.00 : LOG ASCII STANDARD -VERSION 3.0
 WRAP  .     NO   : ONE LINE PER DEPTH STEP
 DLM   .    SPACE : DELIMITING CHARACTER BETWEEN DATA COLUMNS
~WELL INFORMATION
#MNEM  .UNIT        DATA TYPE                  INFORMATION
#------.------ ----------------------------- : -------------------------
 STRT  .F          466.0000                  : START DEPTH
 STOP  .F         3750.0000                  : STOP DEPTH
 STEP  .F            0.5000                  : STEP LENGTH
 NULL  .          -999.2500                  : NO VALUE
 COMP  .      BAILEY-SLBURN OIL & GAS LTD.   : COMPANY
 WELL  .      BAYSEL RETLAW 6-8-13-18        : WELL
 FLD   .      RETLAW                         : FIELD
 LOC   .      06-08-013-18W4                 : LOCATION
 PROV  .      ALBERTA                        : PROVINCE
 SRVC  .      SCHLUMBERGER                   : SERVICE COMPANY
 DATE  .      OCT-19-1964                    : LOGDATE
 UWI   .      100060801318W400               : UNIQUE WELL ID
 LIC   .      0026947                        : LICENSE NO.
~CURVE INFORMATION
#MNEM  .UNIT        API CODE                   CURVE DESCRIPTION
#------.------ ----------------------------- : -------------------------
 DEPT  .F                                    : 
 SP    .mv       07 010 01 00                : Spontaneous Potential
 SN    .ohmm     05 040 16 00                : Short Normal 16"
 LN    .ohmm     05 060 64 00                : Long Normal 64"
 GR    .gapi     60 310 00 00                : Gamma Ray
 DT    .us/f     60 520 00 00                : Delta t
~PARAMETER INFORMATION
#MNEM  .UNIT        VALUE                      DESCRIPTION
#------.------ ----------------------------- : -------------------------
 EKB   .F           2699.0000                : Kelly bushing
 EGL   .F           2686.0000                : Ground level
 EDF   .F           0.0000                   : Drilling floor
 EPD   .F           2686.0000                : Permanent datum
 TD    .F           3750.0000                : Total depth
 DATE  .mm/dd/yyyy  OCT-19-1964              : Date Logged
 DD    .ft          3750                     : Depth Driller
 DL    .ft          3761                     : Depth Logger
 BLI   .ft          3750                     : Bottom Log Interval
 TLI   .ft          466                      : Top Log Interval
 CTD1  .ft          466                      : Casing Driller 1
 CTL1  .ft          466                      : Casing Logger 1
 BS    .inch        7 7/8                    : Bit Size
 DFT   .            POLY PLASTIC             : Type Fluid In Hole
 DFD   .lb/gal      10.9                     : Mud Weight
 DFV   .sec         74                       : Viscosity
 DFPH  .            9.5                      : pH
 DFL   .gal         3.2                      : Fluid Loss
 RM    .ohmm        1.51                     : Rm
 EMT   .F           67                       : Rm Meas. Temp.
 RMF   .ohmm        1.05                     : Rmf
 MFT   .F           80                       : Rmf Meas. Temp.
 RMC   .ohmm        3.0                      : Rmc
 MCST  .F           78                       : Rmc Meas. Temp.
 RMB   .ohmm        1.18                     : Rm. At BHT
 BHT   .F           86                       : BHT.
~TOPS_Definition
 TOPN.        :  Top Name     {S} 
 TOPT.F       :  Top Depth    {F} 
~TOPS_Data | TOPS_Definition
 Kpakowki             865.2  
 Kmilk_rv             1029.9  
 Kcolorado            1423.9  
 Kmed_hat             1583.0  
 K2nd_ws              2319.9  
 K2WS_SS_CW           2371.4  
 KBFS_CW              2584.0  
 Kbfs                 2584.0  
 Kbow_isl             2659.4  
 Kbi_ss               2685.4  
 Kbsl_colo            3085.0  
 Kmannvl              3101.4  
 Kmannvl_CW           3101.7  
 Kmannvl_UBeow CLNY MKR 3181.4  
 KMNVL_MID MKR - BROWN PICK_CW  3260.8  
 MNVL Teal Marker     3327.4  
 Kmann_GP CH Llithic_TOP(Green) 3378.9  
 Kmann_GP CH Lithic_Base 3446.5  
 KmannUmkr            3448.2  
 Kglauc_ss            3494.4  
 KGLAUC_SS_CW         3496.1  
 KglaucCHSS           3516.7  
 Kglauc CHSS Base     3597.8  
 Kostracod            3600.1  
 Ksunburst            3602.7  
 KSunburst CH Sand    3628.0  
 MLivingstn_CW        3735.9  
 Mlivngstn            3737.9  
~Ascii       DEPTH           SP           SN           LN           GR           DT
# ...
     1756.5000       -35.7120         6.9770         4.1040       127.5920       105.2800
     1757.0000       -36.1020         7.6560         4.4340       122.4970       100.6620
     1757.5000       -36.5420         8.3580         5.5450       118.8120        96.0440
     1758.0000       -36.7500         9.0650         7.0140       116.6750        91.7430
     1758.5000       -36.6470         9.7890         8.0820       114.3430        91.7430
     1759.0000       -36.6000        10.5550         8.6830       111.9810        92.8760
     1759.5000       -36.5180        11.2810         9.4460       111.3800        93.9180
     1760.0000       -36.4650        11.4800         9.8870       117.2960        94.9590
     1760.5000       -36.3750        11.6010        10.0410       121.2300        95.8270
     1761.0000       -36.4570        11.7440        10.2310       118.4500        95.8270
     1761.5000       -36.7230        11.8870        10.3880       115.8000        96.1250
     1762.0000       -36.9610        12.0380        10.5530       112.5660        96.2250
     1762.5000       -37.2160        12.1870        10.7270       113.5030        96.5240
     1763.0000       -37.4580        12.3370        10.8930       116.0080        96.2250
     1763.5000       -37.7150        12.4860        11.0470       118.1590        95.9260
     1764.0000       -37.9200        12.6370        10.9270       115.6360        95.6270
     1764.5000       -37.7980        12.7810        10.7620       115.2870        95.3290
     1765.0000       -37.6440        12.9070        10.9320       115.8760        94.6310
     1765.5000       -37.4900        13.0290        11.1060       116.4880        94.1690
     1766.0000       -37.3690        13.1480        11.2930       115.2970        93.2440
     1766.5000       -37.4630        13.2750        11.4680       112.0650        91.7000
     1767.0000       -37.5090        13.3660        11.5750       113.7290        89.7510
     1767.5000       -37.1080        13.3330        11.7170       116.6620        90.3430
     1768.0000       -36.9180        13.2890        11.5650       119.5510        91.6840
     1768.5000       -36.9030        13.2310        11.1870       121.5010        93.0250
     1769.0000       -36.8610        13.1930        10.8630       119.9380        94.3660
     1769.5000       -36.8310        13.1060        10.5150       118.0240        96.3250
     1770.0000       -36.7970        12.9530        10.1820       120.1620        96.0690
     1770.5000       -36.7600        12.8220         9.9860       123.0890        95.5950
     1771.0000       -36.7820        12.6700         9.8880       122.9320        95.1210
     1771.5000       -36.8510        12.5320         9.7780       120.0770        94.6470
     1772.0000       -36.9000        12.3840         9.6760       119.0070        94.2330
     1772.5000       -36.9820        12.2450         9.5690       125.1130        94.2330
     1773.0000       -37.2550        12.1000         9.5360       127.4420        94.2330
     1773.5000       -37.5020        12.0730         9.5390       126.9210        95.1810
     1774.0000       -37.7640        12.1150         9.5420       126.3550        95.9940
     1774.5000       -37.9450        12.1390         9.5330       124.1150        96.8070
     1775.0000       -37.9470        12.1760         9.6000       122.0960        97.5700
     1775.5000       -37.9520        12.1270         9.7000       120.0980       100.7070
     1776.0000       -37.9460        12.0620         9.8030       117.9280        99.6120
     1776.5000       -37.9410        11.9780         9.8470       115.5970       100.5080
     1777.0000       -37.6150        11.9750         9.7650       112.6000       100.2090
     1777.5000       -37.5980        12.0350         9.7030       111.9010        99.8110
     1778.0000       -37.7010        12.0520         9.6210       113.8580        99.9590
     1778.5000       -37.7720        12.0830         9.5780       116.5950       100.6430
     1779.0000       -37.8570        12.1090         9.6170       119.8030       101.3260
     1779.5000       -37.9330        12.1350         9.6590       123.6110       102.0090
     1780.0000       -37.8170        12.1460         9.7050       126.9850       102.6930
     1780.5000       -37.6500        12.1000         9.7460       132.0660       103.3960
     1781.0000       -37.3970        12.0240         9.7970       131.1130       102.4760
     1781.5000       -36.9920        11.8900         9.8190       126.7050       101.5280
     1782.0000       -36.9550        11.8570         9.8460       123.0490       100.6080
     1782.5000       -37.1300        11.9910         9.9220       118.8870       101.2350
     1783.0000       -37.3310        12.1090         9.9940       116.0920       101.8450
     1783.5000       -37.5540        12.2260        10.0640       117.4400       102.4540
     1784.0000       -37.9180        12.3640        10.1430       119.3370       103.2970
     1784.5000       -38.3180        12.3790        10.1820       122.9950       102.7450
     1785.0000       -38.3220        12.2660        10.1930       121.9390       101.8510
     1785.5000       -37.9790        12.1450        10.2420       115.5720       100.9570
     1786.0000       -37.5410        12.1800        10.2720       117.4570       100.0630
     1786.5000       -37.3330        12.4020        10.3810       118.9910        99.1690
     1787.0000       -37.3600        12.5960        10.5730       117.5210        98.1330
     1787.5000       -37.3460        12.8000        10.7460       114.4540        97.0410
     1788.0000       -37.3560        13.0060        10.9420       111.7050        95.9480
     1788.5000       -37.3320        13.1730        11.0280       114.6090        94.6310
     1789.0000       -37.1340        13.2700        11.0210       119.6050        94.3730
     1789.5000       -36.9170        13.2560        11.0210       124.3550        93.8350
     1790.0000       -36.7010        13.1360        11.0250       125.0410        94.0790
     1790.5000       -36.4910        13.0390        10.8450       123.4910        94.7900
     1791.0000       -36.2660        12.9270        10.5520       121.2050        95.5010
     1791.5000       -36.0680        12.8320        10.2870       118.6960        96.2120
     1792.0000       -35.8200        12.6860        10.0090       116.2820        96.5120
     1792.5000       -35.8970        12.4990         9.7390       113.5820        96.2480
     1793.0000       -36.1380        12.3260         9.4630       112.1000        95.9840
     1793.5000       -36.0700        12.1470         9.1930       118.7860        95.7200
     1794.0000       -35.9700        11.9730         8.9180       127.4980        95.4560
     1794.5000       -36.1040        11.7930         8.7700       124.8920        96.4640
     1795.0000       -36.3970        11.4460         8.7100       122.4750        99.6120
     1795.5000       -36.6700        11.1350         8.6400       125.9460        99.1950
     1796.0000       -36.6640        10.7910         8.6140       127.2420        98.4500
     1796.5000       -36.4580        10.7970         8.6500       123.8950        97.7050
     1797.0000       -36.2920        11.0240         8.7220       120.1890        97.1690
     1797.5000       -36.1720        11.1970         8.9090       116.3240        96.7630
     1798.0000       -36.2950        11.3940         9.0900       114.5190        96.3570
     1798.5000       -36.4080        11.5790         9.2640       119.4300        95.9500
     1799.0000       -36.5220        11.7640         9.4500       126.3510        95.6270
     1799.5000       -36.6420        11.8610         9.5810       121.6350        96.9030
     1800.0000       -36.7470        11.9170         9.6530       117.3510        97.9610
     1800.5000       -36.8890        11.9740         9.7040       115.8800        99.0190
