~Version Information
 VERS  .     3.00 : LOG ASCII STANDARD -VERSION 3.0
 WRAP  .     NO   : ONE LINE PER DEPTH STEP
 DLM   .    SPACE : DELIMITING CHARACTER BETWEEN DATA COLUMNS
~WELL INFORMATION
#MNEM  .UNIT        DATA TYPE                  INFORMATION
#------.------ ----------------------------- : -------------------------
 STRT  .F          466.0000                  : START DEPTH
 STOP  .F         3750.0000                  : STOP DEPTH
 STEP  .F            0.5000                  : STEP LENGTH
 NULL  .          -999.2500                  : NO VALUE
 COMP  .      BAILEY-SLBURN OIL & GAS LTD.   : COMPANY
 WELL  .      BAYSEL RETLAW 6-8-13-18        : WELL
 FLD   .      RETLAW                         : FIELD
 LOC   .      06-08-013-18W4                 : LOCATION
 PROV  .      ALBERTA                        : PROVINCE
 SRVC  .      SCHLUMBERGER                   : SERVICE COMPANY
 DATE  .      OCT-19-1964                    : LOGDATE
 UWI   .      100060801318W400               : UNIQUE WELL ID
 LIC   .      0026947                        : LICENSE NO.
~CURVE INFORMATION
#MNEM  .UNIT        API CODE                   CURVE DESCRIPTION
#------.------ ----------------------------- : -------------------------
 DEPT  .F                                    : 
 SP    .mv       07 010 01 00                : Spontaneous Potential
 SN    .ohmm     05 040 16 00                : Short Normal 16"
 LN    .ohmm     05 060 64 00                : Long Normal 64"
 GR    .gapi     60 310 00 00                : Gamma Ray
 DT    .us/f     60 520 00 00                : Delta t
~PARAMETER INFORMATION
#MNEM  .UNIT        VALUE                      DESCRIPTION
#------.------ ----------------------------- : -------------------------
 EKB   .F           2699.0000                : Kelly bushing
 EGL   .F           2686.0000                : Ground level
 EDF   .F           0.0000                   : Drilling floor
 EPD   .F           2686.0000                : Permanent datum
 TD    .F           3750.0000                : Total depth
 DATE  .mm/dd/yyyy  OCT-19-1964              : Date Logged
 DD    .ft          3750                     : Depth Driller
 DL    .ft          3761                     : Depth Logger
 BLI   .ft          3750                     : Bottom Log Interval
 TLI   .ft          466                      : Top Log Interval
 CTD1  .ft          466                      : Casing Driller 1
 CTL1  .ft          466                      : Casing Logger 1
 BS    .inch        7 7/8                    : Bit Size
 DFT   .            POLY PLASTIC             : Type Fluid In Hole
 DFD   .lb/gal      10.9                     : Mud Weight
 DFV   .sec         74                       : Viscosity
 DFPH  .            9.5                      : pH
 DFL   .gal         3.2                      : Fluid Loss
 RM    .ohmm        1.51                     : Rm
 EMT   .F           67                       : Rm Meas. Temp.
 RMF   .ohmm        1.05                     : Rmf
 MFT   .F           80                       : Rmf Meas. Temp.
 RMC   .ohmm        3.0                      : Rmc
 MCST  .F           78                       : Rmc Meas. Temp.
 RMB   .ohmm        1.18                     : Rm. At BHT
 BHT   .F           86                       : BHT.
~TOPS_Definition
 TOPN.        :  Top Name     {S} 
 TOPT.F       :  Top Depth    {F} 
~TOPS_Data | TOPS_Definition
 Kpakowki             865.2  
 Kmilk_rv             1029.9  
 Kcolorado            1423.9  
 Kmed_hat             1583.0  
 K2nd_ws              2319.9  
 K2WS_SS_CW           2371.4  
 KBFS_CW              2584.0  
 Kbfs                 2584.0  
 Kbow_isl             2659.4  
 Kbi_ss               2685.4  
 Kbsl_colo            3085.0  
 Kmannvl              3101.4  
 Kmannvl_CW           3101.7  
 Kmannvl_UBeow CLNY MKR 3181.4  
 KMNVL_MID MKR - BROWN PICK_CW  3260.8  
 MNVL Teal Marker     3327.4  
 Kmann_GP CH Llithic_TOP(Green) 3378.9  
 Kmann_GP CH Lithic_Base 3446.5  
 KmannUmkr            3448.2  
 Kglauc_ss            3494.4  
 KGLAUC_SS_CW         3496.1  
 KglaucCHSS           3516.7  
 Kglauc CHSS Base     3597.8  
 Kostracod            3600.1  
 Ksunburst            3602.7  
 KSunburst CH Sand    3628.0  
 MLivingstn_CW        3735.9  
 Mlivngstn            3737.9  
~Ascii       DEPTH           SP           SN           LN           GR           DT
# ...
     2424.0000       -37.5180        13.7240        10.3780       131.1310        96.3250
     2424.5000       -37.3540        13.9400        10.3380       129.1120        95.9260
     2425.0000       -37.2100        13.9740        10.3300       126.2580        97.0220
     2425.5000       -37.0260        13.8940        10.4280       127.3730        98.2170
     2426.0000       -37.0180        13.7800        10.6870       130.3820        99.9100
     2426.5000       -37.2380        13.6840        10.9310       133.1060        97.8190
     2427.0000       -37.5430        13.8750        11.1840       134.6680        96.7230
     2427.5000       -38.1000        14.1260        11.4320       130.3460        95.1290
     2428.0000       -38.3800        14.3690        11.6850       127.2420        93.8350
     2428.5000       -38.3770        14.6090        11.9240       120.9010        91.1450
     2429.0000       -38.4190        14.8600        12.0120       118.6040        91.4390
     2429.5000       -38.4380        15.0900        12.0770       125.8710        92.1710
     2430.0000       -38.4700        15.3610        12.1500       128.0150        92.9380
     2430.5000       -38.4930        15.3720        12.1870       125.0270        92.2140
     2431.0000       -38.5240        15.1130        12.1660       121.7930        91.4440
     2431.5000       -38.5350        14.9150        12.0180       120.7130        92.1890
     2432.0000       -38.4190        14.6640        11.8510       123.4250        92.9400
     2432.5000       -38.2950        14.6300        11.6930       125.5080        93.6920
     2433.0000       -38.1670        14.7630        11.5230       127.6890        94.4440
     2433.5000       -38.0500        14.8610        11.3930       126.1490        95.1960
     2434.0000       -37.9110        14.9140        11.3450       126.9250        95.9480
     2434.5000       -37.8160        14.7040        11.2850       129.6810        96.6990
     2435.0000       -37.5200        14.4940        11.2040       132.3400        97.4510
     2435.5000       -37.1370        14.2710        10.9350       134.7130        98.2030
     2436.0000       -36.9730        14.0730        10.7540       137.8050        98.8150
     2436.5000       -36.7960        13.8210        10.7230       135.2620        97.6100
     2437.0000       -36.8150        13.9470        10.8770       126.4430        96.8230
     2437.5000       -37.0220        14.2990        11.1530       120.7460        95.0800
     2438.0000       -37.6200        14.5840        11.3780       122.6300        92.6390
     2438.5000       -38.1700        14.9030        11.6410       126.5750        91.7820
     2439.0000       -38.5420        15.1970        11.8480       125.3540        89.4520
     2439.5000       -38.8830        15.5160        12.2480       119.8010        90.0190
     2440.0000       -38.8020        15.8020        12.8730       121.2700        90.7160
     2440.5000       -38.5430        16.1560        13.2460       125.2860        91.8430
     2441.0000       -38.2940        16.3170        13.2610       129.4020        91.4320
     2441.5000       -38.1710        16.1250        13.2150       122.6830        90.3580
     2442.0000       -38.3320        15.9810        13.0770       112.2730        89.2840
     2442.5000       -38.4490        16.0510        12.8000       110.4410        88.1570
     2443.0000       -38.5980        16.3030        12.4600       114.6750        89.7420
     2443.5000       -38.7160        16.1910        12.1280       121.7730        91.4080
     2444.0000       -38.6580        15.6940        11.7910       128.6140        93.0740
     2444.5000       -38.2530        15.2260        11.4590       131.4370        94.7400
     2445.0000       -37.4250        14.7370        11.1200       134.8500        97.8190
     2445.5000       -37.1350        14.2610        10.7950       136.3080        96.8230
     2446.0000       -36.9270        13.7740        10.4370       138.5460        96.7230
     2446.5000       -36.6640        13.3050        10.1810       137.1880        95.8270
     2447.0000       -36.5930        13.4150        10.1760       133.8240        94.4010
     2447.5000       -36.7680        13.6170        10.1910       131.7880        94.0340
     2448.0000       -37.1280        13.7970        10.3240       127.0670        94.4130
     2448.5000       -37.5190        13.9890        10.4600       125.0200        94.7430
     2449.0000       -37.6980        14.1710        10.6040       129.3530        95.0730
     2449.5000       -37.6530        14.3230        10.7860       135.8780        95.3290
     2450.0000       -37.4020        14.4640        11.0780       133.7010        94.0840
     2450.5000       -37.1760        14.6440        11.3520       129.9730        92.3900
     2451.0000       -36.9890        14.8620        11.6350       126.7340        90.3490
     2451.5000       -37.2480        15.0730        11.9150       127.4020        90.7280
     2452.0000       -37.5300        15.2880        12.1720       128.1960        91.9760
     2452.5000       -37.8370        15.5010        12.2370       127.9050        93.2240
     2453.0000       -37.9140        15.7140        12.3110       125.7820        94.6310
     2453.5000       -37.7960        15.9280        12.3310       123.2550        93.8870
     2454.0000       -37.7140        16.1400        12.6340       119.6860        93.0330
     2454.5000       -37.6150        16.3570        13.0050       115.2030        92.1800
     2455.0000       -37.5230        16.5390        12.9010       116.4370        91.3270
     2455.5000       -37.4320        16.6340        12.7720       120.0870        90.4480
     2456.0000       -37.3180        16.7090        12.6210       123.1830        91.7100
     2456.5000       -36.9730        16.8000        12.5810       125.3790        93.0110
     2457.0000       -36.6670        16.8400        12.8830       123.4030        93.6350
     2457.5000       -36.5120        16.7760        13.1840       120.8840        92.3600
     2458.0000       -36.8400        16.6600        13.4770       119.7470        91.1200
     2458.5000       -37.3590        16.9070        13.7770       118.2040        89.8810
     2459.0000       -37.8200        17.3790        13.8970       115.6990        88.6410
     2459.5000       -38.2850        17.7660        14.1110       113.4670        87.6590
     2460.0000       -38.7860        18.1960        14.0240       110.8660        88.3500
     2460.5000       -39.1820        18.5960        13.7360       107.7920        89.4340
     2461.0000       -38.9400        18.9720        13.5440       110.4420        90.5170
     2461.5000       -38.8490        18.7030        13.1600       114.2340        91.6010
     2462.0000       -38.3910        18.1170        12.7670       118.2900        92.4400
     2462.5000       -38.0590        17.5870        12.3490       123.1070        94.4820
     2463.0000       -37.8530        17.0200        12.2830       125.8290        94.7310
     2463.5000       -37.6120        16.4930        12.2300       129.7310        94.0340
     2464.0000       -37.3770        15.8940        12.2160       133.1760        93.7350
     2464.5000       -37.3100        15.5190        12.2210       132.4680        92.3410
     2465.0000       -37.2780        15.5990        12.2200       129.7960        91.3450
     2465.5000       -37.2310        15.8790        12.2120       127.2340        90.5590
     2466.0000       -37.2000        16.1350        12.1710       124.8000        88.8550
     2466.5000       -37.1300        16.5330        11.9710       121.6790        89.5670
     2467.0000       -36.8710        16.4460        11.7280       122.6910        91.3410
     2467.5000       -36.5040        16.0330        11.4910       124.8190        93.1140
     2468.0000       -36.4140        15.6730        11.2540       125.3320        94.8870
