~Version Information
 VERS  .     3.00 : LOG ASCII STANDARD -VERSION 3.0
 WRAP  .     NO   : ONE LINE PER DEPTH STEP
 DLM   .    SPACE : DELIMITING CHARACTER BETWEEN DATA COLUMNS
~WELL INFORMATION
#MNEM  .UNIT        DATA TYPE                  INFORMATION
#------.------ ----------------------------- : -------------------------
 STRT  .F          466.0000                  : START DEPTH
 STOP  .F         3750.0000                  : STOP DEPTH
 STEP  .F            0.5000                  : STEP LENGTH
 NULL  .          -999.2500                  : NO VALUE
 COMP  .      BAILEY-SLBURN OIL & GAS LTD.   : COMPANY
 WELL  .      BAYSEL RETLAW 6-8-13-18        : WELL
 FLD   .      RETLAW                         : FIELD
 LOC   .      06-08-013-18W4                 : LOCATION
 PROV  .      ALBERTA                        : PROVINCE
 SRVC  .      SCHLUMBERGER                   : SERVICE COMPANY
 DATE  .      OCT-19-1964                    : LOGDATE
 UWI   .      100060801318W400               : UNIQUE WELL ID
 LIC   .      0026947                        : LICENSE NO.
~CURVE INFORMATION
#MNEM  .UNIT        API CODE                   CURVE DESCRIPTION
#------.------ ----------------------------- : -------------------------
 DEPT  .F                                    : 
 SP    .mv       07 010 01 00                : Spontaneous Potential
 SN    .ohmm     05 040 16 00                : Short Normal 16"
 LN    .ohmm     05 060 64 00                : Long Normal 64"
 GR    .gapi     60 310 00 00                : Gamma Ray
 DT    .us/f     60 520 00 00                : Delta t
~PARAMETER INFORMATION
#MNEM  .UNIT        VALUE                      DESCRIPTION
#------.------ ----------------------------- : -------------------------
 EKB   .F           2699.0000                : Kelly bushing
 EGL   .F           2686.0000                : Ground level
 EDF   .F           0.0000                   : Drilling floor
 EPD   .F           2686.0000                : Permanent datum
 TD    .F           3750.0000                : Total depth
 DATE  .mm/dd/yyyy  OCT-19-1964              : Date Logged
 DD    .ft          3750                     : Depth Driller
 DL    .ft          3761                     : Depth Logger
 BLI   .ft          3750                     : Bottom Log Interval
 TLI   .ft          466                      : Top Log Interval
 CTD1  .ft          466                      : Casing Driller 1
 CTL1  .ft          466                      : Casing Logger 1
 BS    .inch        7 7/8                    : Bit Size
 DFT   .            POLY PLASTIC             : Type Fluid In Hole
 DFD   .lb/gal      10.9                     : Mud Weight
 DFV   .sec         74                       : Viscosity
 DFPH  .            9.5                      : pH
 DFL   .gal         3.2                      : Fluid Loss
 RM    .ohmm        1.51                     : Rm
 EMT   .F           67                       : Rm Meas. Temp.
 RMF   .ohmm        1.05                     : Rmf
 MFT   .F           80                       : Rmf Meas. Temp.
 RMC   .ohmm        3.0                      : Rmc
 MCST  .F           78                       : Rmc Meas. Temp.
 RMB   .ohmm        1.18                     : Rm. At BHT
 BHT   .F           86                       : BHT.
~TOPS_Definition
 TOPN.        :  Top Name     {S} 
 TOPT.F       :  Top Depth    {F} 
~TOPS_Data | TOPS_Definition
 Kpakowki             865.2  
 Kmilk_rv             1029.9  
 Kcolorado            1423.9  
 Kmed_hat             1583.0  
 K2nd_ws              2319.9  
 K2WS_SS_CW           2371.4  
 KBFS_CW              2584.0  
 Kbfs                 2584.0  
 Kbow_isl             2659.4  
 Kbi_ss               2685.4  
 Kbsl_colo            3085.0  
 Kmannvl              3101.4  
 Kmannvl_CW           3101.7  
 Kmannvl_UBeow CLNY MKR 3181.4  
 KMNVL_MID MKR - BROWN PICK_CW  3260.8  
 MNVL Teal Marker     3327.4  
 Kmann_GP CH Llithic_TOP(Green) 3378.9  
 Kmann_GP CH Lithic_Base 3446.5  
 KmannUmkr            3448.2  
 Kglauc_ss            3494.4  
 KGLAUC_SS_CW         3496.1  
 KglaucCHSS           3516.7  
 Kglauc CHSS Base     3597.8  
 Kostracod            3600.1  
 Ksunburst            3602.7  
 KSunburst CH Sand    3628.0  
 MLivingstn_CW        3735.9  
 Mlivngstn            3737.9  
~Ascii       DEPTH           SP           SN           LN           GR           DT
# ...
     1979.0000       -35.4520        11.2670         8.3870       129.8650        95.9150
     1979.5000       -35.2620        11.1870         8.5000       126.9630        95.3300
     1980.0000       -35.1280        11.0880         8.7200       123.7400        94.8310
     1980.5000       -34.9790        11.1520         8.9230       120.7140        95.8160
     1981.0000       -34.9860        11.4080         9.1340       117.5550        96.6750
     1981.5000       -35.0330        11.6310         9.3430       114.4780        97.5350
     1982.0000       -35.0710        11.8790         9.5460       111.4080        99.0140
     1982.5000       -35.1130        12.0990         9.7630       111.5020        98.7080
     1983.0000       -35.1490        12.3630         9.8850       112.3360        97.6170
     1983.5000       -35.0540        12.3930         9.8970       113.2560        96.5250
     1984.0000       -34.9100        12.1930         9.5850       113.0740        95.9460
     1984.5000       -34.7840        12.0320         9.1790       111.2160        96.2790
     1985.0000       -34.6340        11.8490         9.0070       110.2960        96.6120
     1985.5000       -34.5550        11.6810         8.9960       112.7650        96.9440
     1986.0000       -34.5660        11.4980         8.9460       115.6120        96.9440
     1986.5000       -34.5590        11.3670         8.8910       118.0960        96.5640
     1987.0000       -34.5650        11.5320         8.9920       123.0270        96.1840
     1987.5000       -34.5560        11.7240         9.1360       127.4560        95.8270
     1988.0000       -34.5720        11.9130         9.2670       129.7540        96.6230
     1988.5000       -34.4730        12.0990         9.4040       130.1080        97.3730
     1989.0000       -34.2700        12.2920         9.5380       130.1940        98.1240
     1989.5000       -34.0550        12.4720         9.6650       129.1250        99.1140
     1990.0000       -33.9590        12.6760         9.7920       125.4640        98.6390
     1990.5000       -33.9550        12.6850         9.9150       125.5620        97.9440
     1991.0000       -34.1100        12.5520        10.0150       126.8370        97.2480
     1991.5000       -34.4710        12.4370        10.0190       126.1610        96.5520
     1992.0000       -34.7180        12.3690        10.0470       122.9810        95.8560
     1992.5000       -34.5570        12.6060        10.0720       119.9250        95.1600
     1993.0000       -34.3460        12.8370        10.1100       116.9160        94.4640
     1993.5000       -34.1470        13.0770        10.2450       113.6020        93.9560
     1994.0000       -33.9450        13.3030        10.4440       112.1730        93.7510
     1994.5000       -33.7400        13.5510        10.6170       114.1430        93.5460
     1995.0000       -33.5430        13.5460        10.8010       116.2330        93.3420
     1995.5000       -33.3280        13.3650        10.8690       118.0890        93.1370
     1996.0000       -33.2000        13.2780        10.8310       120.4150        92.9420
     1996.5000       -33.4210        13.3550        10.7970       118.3100        92.7560
     1997.0000       -33.6490        13.4330        10.7410       111.8260        92.5700
     1997.5000       -33.8690        13.5210        10.8480       109.3670        92.3840
     1998.0000       -34.1000        13.5820        11.0540       111.9110        92.1980
     1998.5000       -34.1110        13.7590        11.2240       114.5520        92.0420
     1999.0000       -33.9830        14.0040        11.4110       117.1190        92.7540
     1999.5000       -33.9960        14.2170        11.5860       118.0830        93.3670
     2000.0000       -34.0520        14.4390        11.7730       117.0240        93.9790
     2000.5000       -34.1010        14.6700        11.9450       115.5330        94.5920
     2001.0000       -34.1530        14.9090        12.1490       114.1970        95.0300
     2001.5000       -34.2010        15.0590        12.2700       112.8490        94.4320
     2002.0000       -34.2550        15.0600        12.1870       111.3880        94.1330
     2002.5000       -34.3000        15.0630        12.0980       110.3910        93.7350
     2003.0000       -34.3730        15.0580        12.0030       111.2200        93.0380
     2003.5000       -34.5420        15.0670        11.9120       112.8350        92.4400
     2004.0000       -34.8380        15.0020        11.8170       114.8270        92.4400
     2004.5000       -34.8400        14.8220        11.7260       116.1720        92.7390
     2005.0000       -34.4130        14.6450        11.6280       118.5670        93.2370
     2005.5000       -34.0240        14.6970        11.6190       116.2710        93.9340
     2006.0000       -33.6110        14.8050        11.6140       114.2620        94.5320
     2006.5000       -33.2260        14.9010        11.6730       118.9260        96.6240
     2007.0000       -33.4580        15.0020        11.8290       121.9760        96.3960
     2007.5000       -33.8150        15.1020        11.9760       122.5030        95.9580
     2008.0000       -34.1740        15.2000        12.1290       122.4210        95.5210
     2008.5000       -34.4440        15.3450        12.2800       121.5840        95.0830
     2009.0000       -34.5860        15.5450        12.4310       119.5370        94.6460
     2009.5000       -34.7380        15.7520        12.5830       117.9650        94.2080
     2010.0000       -34.5460        15.9440        12.7300       115.7210        93.8350
     2010.5000       -34.3220        16.1690        12.7850       116.7000        94.4070
     2011.0000       -34.0690        16.2160        12.8280       119.6300        94.9050
     2011.5000       -34.0110        16.0690        12.8730       122.1230        95.4040
     2012.0000       -34.1700        15.9480        12.9180       124.7530        95.9030
     2012.5000       -34.2910        15.8360        12.9640       127.3840        96.8230
     2013.0000       -34.4360        15.9180        13.0080       127.9730        96.3250
     2013.5000       -34.5410        16.0220        13.0550       125.0760        96.2250
     2014.0000       -34.4420        16.1160        13.0970       120.8880        95.8270
     2014.5000       -34.3160        16.2250        13.1420       116.4810        95.7270
     2015.0000       -34.1980        16.3100        13.1000       117.7370        96.1250
     2015.5000       -34.0750        16.4390        13.0980       120.5440        96.3250
     2016.0000       -33.9630        16.2920        12.8320       122.8990        96.6240
     2016.5000       -33.8510        15.9100        12.3440       125.7130        97.2210
     2017.0000       -33.7910        15.5780        11.9040       127.0590        98.3170
     2017.5000       -34.0170        15.2240        11.4470       125.6900        99.0140
     2018.0000       -34.2400        14.8790        10.9930       130.9120        99.7110
     2018.5000       -34.4860        14.5340        10.7420       133.2420       100.1100
     2019.0000       -34.5030        14.1830        10.6470       129.9050       100.6080
     2019.5000       -34.3540        14.0200        10.5320       127.8220       101.0590
     2020.0000       -34.2420        13.9940        10.4260       131.0820       101.5060
     2020.5000       -34.1100        13.9430        10.3400       135.1650       101.9530
     2021.0000       -33.9920        13.9550        10.3850       135.0560       102.4000
     2021.5000       -33.8600        14.1760        10.4050       134.0280       102.7990
     2022.0000       -33.7780        14.3550        10.5400       133.3220        99.8420
     2022.5000       -33.8520        14.6450        11.3740       130.5940        97.1740
     2023.0000       -33.9240        15.6180        12.1010       130.9040        94.5050
