~Version Information
 VERS  .     3.00 : LOG ASCII STANDARD -VERSION 3.0
 WRAP  .     NO   : ONE LINE PER DEPTH STEP
 DLM   .    SPACE : DELIMITING CHARACTER BETWEEN DATA COLUMNS
~WELL INFORMATION
#MNEM  .UNIT        DATA TYPE                  INFORMATION
#------.------ ----------------------------- : -------------------------
 STRT  .F          466.0000                  : START DEPTH
 STOP  .F         3750.0000                  : STOP DEPTH
 STEP  .F            0.5000                  : STEP LENGTH
 NULL  .          -999.2500                  : NO VALUE
 COMP  .      BAILEY-SLBURN OIL & GAS LTD.   : COMPANY
 WELL  .      BAYSEL RETLAW 6-8-13-18        : WELL
 FLD   .      RETLAW                         : FIELD
 LOC   .      06-08-013-18W4                 : LOCATION
 PROV  .      ALBERTA                        : PROVINCE
 SRVC  .      SCHLUMBERGER                   : SERVICE COMPANY
 DATE  .      OCT-19-1964                    : LOGDATE
 UWI   .      100060801318W400               : UNIQUE WELL ID
 LIC   .      0026947                        : LICENSE NO.
~CURVE INFORMATION
#MNEM  .UNIT        API CODE                   CURVE DESCRIPTION
#------.------ ----------------------------- : -------------------------
 DEPT  .F                                    : 
 SP    .mv       07 010 01 00                : Spontaneous Potential
 SN    .ohmm     05 040 16 00                : Short Normal 16"
 LN    .ohmm     05 060 64 00                : Long Normal 64"
 GR    .gapi     60 310 00 00                : Gamma Ray
 DT    .us/f     60 520 00 00                : Delta t
~PARAMETER INFORMATION
#MNEM  .UNIT        VALUE                      DESCRIPTION
#------.------ ----------------------------- : -------------------------
 EKB   .F           2699.0000                : Kelly bushing
 EGL   .F           2686.0000                : Ground level
 EDF   .F           0.0000                   : Drilling floor
 EPD   .F           2686.0000                : Permanent datum
 TD    .F           3750.0000                : Total depth
 DATE  .mm/dd/yyyy  OCT-19-1964              : Date Logged
 DD    .ft          3750                     : Depth Driller
 DL    .ft          3761                     : Depth Logger
 BLI   .ft          3750                     : Bottom Log Interval
 TLI   .ft          466                      : Top Log Interval
 CTD1  .ft          466                      : Casing Driller 1
 CTL1  .ft          466                      : Casing Logger 1
 BS    .inch        7 7/8                    : Bit Size
 DFT   .            POLY PLASTIC             : Type Fluid In Hole
 DFD   .lb/gal      10.9                     : Mud Weight
 DFV   .sec         74                       : Viscosity
 DFPH  .            9.5                      : pH
 DFL   .gal         3.2                      : Fluid Loss
 RM    .ohmm        1.51                     : Rm
 EMT   .F           67                       : Rm Meas. Temp.
 RMF   .ohmm        1.05                     : Rmf
 MFT   .F           80                       : Rmf Meas. Temp.
 RMC   .ohmm        3.0                      : Rmc
 MCST  .F           78                       : Rmc Meas. Temp.
 RMB   .ohmm        1.18                     : Rm. At BHT
 BHT   .F           86                       : BHT.
~TOPS_Definition
 TOPN.        :  Top Name     {S} 
 TOPT.F       :  Top Depth    {F} 
~TOPS_Data | TOPS_Definition
 Kpakowki             865.2  
 Kmilk_rv             1029.9  
 Kcolorado            1423.9  
 Kmed_hat             1583.0  
 K2nd_ws              2319.9  
 K2WS_SS_CW           2371.4  
 KBFS_CW              2584.0  
 Kbfs                 2584.0  
 Kbow_isl             2659.4  
 Kbi_ss               2685.4  
 Kbsl_colo            3085.0  
 Kmannvl              3101.4  
 Kmannvl_CW           3101.7  
 Kmannvl_UBeow CLNY MKR 3181.4  
 KMNVL_MID MKR - BROWN PICK_CW  3260.8  
 MNVL Teal Marker     3327.4  
 Kmann_GP CH Llithic_TOP(Green) 3378.9  
 Kmann_GP CH Lithic_Base 3446.5  
 KmannUmkr            3448.2  
 Kglauc_ss            3494.4  
 KGLAUC_SS_CW         3496.1  
 KglaucCHSS           3516.7  
 Kglauc CHSS Base     3597.8  
 Kostracod            3600.1  
 Ksunburst            3602.7  
 KSunburst CH Sand    3628.0  
 MLivingstn_CW        3735.9  
 Mlivngstn            3737.9  
~Ascii       DEPTH           SP           SN           LN           GR           DT
# ...
      688.5000       -34.9070         7.9680         6.1670        98.4540       109.2670
      689.0000       -34.8380         8.1110         6.1500       100.0520       108.9740
      689.5000       -34.7800         8.0600         6.3080       102.2520       109.9380
      690.0000       -34.7140         7.9050         6.5360       104.7680       110.7820
      690.5000       -34.6580         7.9960         6.7480       105.7700       112.0480
      691.0000       -34.5840         8.4230         6.9700       100.2590       110.1690
      691.5000       -34.6490         8.8160         7.1840        99.5960       108.4160
      692.0000       -34.8920         9.2380         7.4060        99.7060       106.1480
      692.5000       -34.9120         9.6290         7.6160        99.7180       106.6850
      693.0000       -34.8130        10.0670         7.9230        98.5560       107.2230
      693.5000       -34.6050        10.3100         8.3390        92.6050       108.0780
      694.0000       -34.2750        10.3770         8.7420        93.5550       106.8530
      694.5000       -33.9860        10.3750         9.1550        97.5150       103.8570
      695.0000       -33.6710        10.7770         9.5610       102.7620       100.8620
      695.5000       -33.3800        11.4610         9.9760        99.7280        97.8660
      696.0000       -33.0610        12.0920        10.3310        90.0030        94.8700
      696.5000       -33.0210        12.6530        10.3920        77.6220        92.0420
      697.0000       -33.1660        12.6970        10.4630        80.9830        94.1330
      697.5000       -33.2660        12.2870        10.4100        90.6300        95.6270
      698.0000       -33.3980        11.8760        10.4110        97.5750        98.3170
      698.5000       -33.7170        11.4690         9.9640        94.0180       104.5920
      699.0000       -33.9890        11.0590         9.1990        91.1220       103.7000
      699.5000       -34.3060        10.6520         8.6130        87.5440       102.9330
      700.0000       -34.1840        10.2420         8.0120        83.8160       101.6040
      700.5000       -33.8600         9.9640         7.3340        82.0990       102.2550
      701.0000       -33.5520         9.7390         6.8640        84.4100       104.6990
      701.5000       -33.3540         9.5010         6.7960        86.2290       107.1430
      702.0000       -33.4170         9.1730         6.6420        88.3670       109.5880
      702.5000       -33.4320         8.6540         6.5320        90.3170       112.0320
      703.0000       -33.4710         8.1200         6.3970        92.4050       114.4760
      703.5000       -33.4980         7.5160         6.2760        92.0440       117.0420
      704.0000       -33.5300         7.2260         6.1420        92.6790       116.6990
      704.5000       -33.5660         7.5520         6.0080        94.6140       115.8840
      705.0000       -33.5440         7.7990         5.9060        93.6190       114.6510
      705.5000       -33.2420         8.0640         5.7150        90.2250       115.2180
      706.0000       -32.7870         7.9110         5.5660        87.0450       116.3820
      706.5000       -32.4860         7.5970         5.5850        83.6730       117.5460
      707.0000       -32.2710         7.3090         5.5770        81.0070       118.6350
      707.5000       -32.2730         7.0000         5.5680        81.6730       118.3570
      708.0000       -32.6180         6.7360         5.5240        83.2010       118.0950
      708.5000       -32.9130         6.8510         5.4860        83.7830       117.8330
      709.0000       -33.2400         7.1230         5.4290        81.7680       117.4400
      709.5000       -33.5290         7.2720         5.4670        84.8050       117.0420
      710.0000       -33.4780         7.2330         5.5280        89.2700       116.7430
      710.5000       -33.3690         6.8580         5.5870        87.4530       116.9420
      711.0000       -33.2700         7.0110         5.6420        81.1230       118.3370
      711.5000       -33.1810         7.3370         5.7100        80.0070       116.0640
      712.0000       -33.2320         7.6070         5.7230        80.9720       113.9930
      712.5000       -33.3010         7.4890         5.6650        82.1770       114.2270
      713.0000       -33.3680         7.2730         5.6100        83.2230       114.6950
      713.5000       -33.4340         7.0530         5.5750        79.4020       115.1640
      714.0000       -33.5040         6.9200         5.5870        75.5890       115.6320
      714.5000       -33.5530         6.8550         5.6830        74.1530       116.1450
      715.0000       -33.4630         7.0470         5.8200        77.6930       114.1420
      715.5000       -33.3610         7.3320         6.0120        81.0390       111.9260
      716.0000       -33.2600         7.5930         6.2330        79.5940       109.7110
      716.5000       -33.1590         7.8640         6.4490        80.8450       107.4800
      717.0000       -33.0570         8.1330         6.6680        82.9820       107.8040
      717.5000       -32.9590         8.3990         6.8850        86.1690       108.1290
      718.0000       -32.8520         8.6770         6.9780        84.8020       108.2770
      718.5000       -32.7880         8.8630         7.0550        79.7850       108.0250
      719.0000       -32.9330         8.8220         7.1370        72.5300       107.2330
      719.5000       -33.0760         8.6380         7.2180        73.2490       106.4410
      720.0000       -33.2310         8.6570         7.2890        78.1100       105.6490
      720.5000       -33.3630         8.6980         7.2150        82.1840       104.9900
      721.0000       -33.5360         8.7400         7.1230        85.4380       106.4180
      721.5000       -33.4120         8.7780         7.0240        83.7110       106.8820
      722.0000       -33.1110         8.8280         6.9830        80.4460       107.6790
      722.5000       -32.8510         8.9360         7.0100        79.1390       110.2690
      723.0000       -32.8030         9.0730         7.0240        79.8550       112.7590
      723.5000       -32.9050         9.1780         7.0450        81.9660       116.5210
      724.0000       -32.9690         9.3450         7.0620        85.1550       116.1140
      724.5000       -33.0510         9.1260         7.0820        87.9230       115.6470
      725.0000       -33.1250         8.4540         7.0970        91.0250       113.9540
      725.5000       -33.2000         8.0360         7.1000        93.7330       112.2610
      726.0000       -33.2780         8.7820         7.0960        97.2310       109.0740
      726.5000       -33.3550         9.7840         7.1300        95.3700       107.3840
      727.0000       -33.3540        10.2160         7.1690        90.1390       104.2930
      727.5000       -32.8770        10.1680         7.1870        86.8150       102.3010
      728.0000       -32.2340        10.1650         7.2490        81.9030       101.8030
      728.5000       -31.5670         9.9180         7.6000        82.9430       100.9060
      729.0000       -31.0940         9.6580         7.9750        84.6710       100.0210
      729.5000       -31.6400         9.4490         8.3510        82.5810        97.8190
      730.0000       -31.8180         9.4950         8.6860        78.5250        98.2170
      730.5000       -32.1490         9.8890         8.7570        77.2840        98.4240
      731.0000       -32.6540        10.4260         8.8120        80.4370        98.7630
      731.5000       -33.0980        10.9530         8.8310        82.9640        99.1030
      732.0000       -32.9490        11.3510         8.7880        85.3360       102.0310
      732.5000       -32.6550        10.9560         8.4450        83.7790       106.2060
