~Version Information
 VERS  .     3.00 : LOG ASCII STANDARD -VERSION 3.0
 WRAP  .     NO   : ONE LINE PER DEPTH STEP
 DLM   .    SPACE : DELIMITING CHARACTER BETWEEN DATA COLUMNS
~WELL INFORMATION
#MNEM  .UNIT        DATA TYPE                  INFORMATION
#------.------ ----------------------------- : -------------------------
 STRT  .F          466.0000                  : START DEPTH
 STOP  .F         3750.0000                  : STOP DEPTH
 STEP  .F            0.5000                  : STEP LENGTH
 NULL  .          -999.2500                  : NO VALUE
 COMP  .      BAILEY-SLBURN OIL & GAS LTD.   : COMPANY
 WELL  .      BAYSEL RETLAW 6-8-13-18        : WELL
 FLD   .      RETLAW                         : FIELD
 LOC   .      06-08-013-18W4                 : LOCATION
 PROV  .      ALBERTA                        : PROVINCE
 SRVC  .      SCHLUMBERGER                   : SERVICE COMPANY
 DATE  .      OCT-19-1964                    : LOGDATE
 UWI   .      100060801318W400               : UNIQUE WELL ID
 LIC   .      0026947                        : LICENSE NO.
~CURVE INFORMATION
#MNEM  .UNIT        API CODE                   CURVE DESCRIPTION
#------.------ ----------------------------- : -------------------------
 DEPT  .F                                    : 
 SP    .mv       07 010 01 00                : Spontaneous Potential
 SN    .ohmm     05 040 16 00                : Short Normal 16"
 LN    .ohmm     05 060 64 00                : Long Normal 64"
 GR    .gapi     60 310 00 00                : Gamma Ray
 DT    .us/f     60 520 00 00                : Delta t
~PARAMETER INFORMATION
#MNEM  .UNIT        VALUE                      DESCRIPTION
#------.------ ----------------------------- : -------------------------
 EKB   .F           2699.0000                : Kelly bushing
 EGL   .F           2686.0000                : Ground level
 EDF   .F           0.0000                   : Drilling floor
 EPD   .F           2686.0000                : Permanent datum
 TD    .F           3750.0000                : Total depth
 DATE  .mm/dd/yyyy  OCT-19-1964              : Date Logged
 DD    .ft          3750                     : Depth Driller
 DL    .ft          3761                     : Depth Logger
 BLI   .ft          3750                     : Bottom Log Interval
 TLI   .ft          466                      : Top Log Interval
 CTD1  .ft          466                      : Casing Driller 1
 CTL1  .ft          466                      : Casing Logger 1
 BS    .inch        7 7/8                    : Bit Size
 DFT   .            POLY PLASTIC             : Type Fluid In Hole
 DFD   .lb/gal      10.9                     : Mud Weight
 DFV   .sec         74                       : Viscosity
 DFPH  .            9.5                      : pH
 DFL   .gal         3.2                      : Fluid Loss
 RM    .ohmm        1.51                     : Rm
 EMT   .F           67                       : Rm Meas. Temp.
 RMF   .ohmm        1.05                     : Rmf
 MFT   .F           80                       : Rmf Meas. Temp.
 RMC   .ohmm        3.0                      : Rmc
 MCST  .F           78                       : Rmc Meas. Temp.
 RMB   .ohmm        1.18                     : Rm. At BHT
 BHT   .F           86                       : BHT.
~TOPS_Definition
 TOPN.        :  Top Name     {S} 
 TOPT.F       :  Top Depth    {F} 
~TOPS_Data | TOPS_Definition
 Kpakowki             865.2  
 Kmilk_rv             1029.9  
 Kcolorado            1423.9  
 Kmed_hat             1583.0  
 K2nd_ws              2319.9  
 K2WS_SS_CW           2371.4  
 KBFS_CW              2584.0  
 Kbfs                 2584.0  
 Kbow_isl             2659.4  
 Kbi_ss               2685.4  
 Kbsl_colo            3085.0  
 Kmannvl              3101.4  
 Kmannvl_CW           3101.7  
 Kmannvl_UBeow CLNY MKR 3181.4  
 KMNVL_MID MKR - BROWN PICK_CW  3260.8  
 MNVL Teal Marker     3327.4  
 Kmann_GP CH Llithic_TOP(Green) 3378.9  
 Kmann_GP CH Lithic_Base 3446.5  
 KmannUmkr            3448.2  
 Kglauc_ss            3494.4  
 KGLAUC_SS_CW         3496.1  
 KglaucCHSS           3516.7  
 Kglauc CHSS Base     3597.8  
 Kostracod            3600.1  
 Ksunburst            3602.7  
 KSunburst CH Sand    3628.0  
 MLivingstn_CW        3735.9  
 Mlivngstn            3737.9  
~Ascii       DEPTH           SP           SN           LN           GR           DT
# ...
     3714.5000       -80.5050        15.5270         9.9790        39.4410        88.2640
     3715.0000       -80.7870        14.8860         9.9440        39.9270        87.8420
     3715.5000       -80.9210        14.2060         9.9070        40.3030        87.2720
     3716.0000       -80.9690        13.6540         9.9170        40.0450        87.9660
     3716.5000       -80.9910        13.8000        10.1760        41.8650        87.3610
     3717.0000       -81.0890        14.3890        10.4870        45.0960        86.1810
     3717.5000       -80.9550        15.4030        10.9350        48.1560        86.3970
     3718.0000       -80.5050        16.8560        11.4570        52.5270        86.7740
     3718.5000       -79.7510        18.2370        11.9850        55.3510        87.1730
     3719.0000       -79.3060        19.6330        12.4870        58.9890        86.3160
     3719.5000       -79.2390        20.0420        13.0750        60.1290        85.1870
     3720.0000       -78.9540        20.5100        13.2820        58.9990        84.0570
     3720.5000       -78.6950        20.4000        13.1430        57.0020        82.5100
     3721.0000       -78.4200        20.2500        12.9110        55.2540        84.0340
     3721.5000       -78.1000        19.9860        12.4820        54.4740        85.6850
     3722.0000       -77.1770        19.7280        12.1790        57.7370        82.2050
     3722.5000       -76.0890        19.4760        12.0910        60.5880        79.1240
     3723.0000       -74.8390        18.9690        12.2310        67.9170        76.0440
     3723.5000       -73.3650        17.9390        12.4810        77.3400        72.3910
     3724.0000       -71.0710        17.1970        12.7380        86.5550        72.1520
     3724.5000       -67.8650        17.0120        12.8930        94.1530        71.8950
     3725.0000       -62.2220        17.6720        12.8900        96.0930        72.2740
     3725.5000       -57.2900        18.7540        12.9160        84.0420        72.5890
     3726.0000       -54.3270        19.7760        12.9130        72.5340        74.5140
     3726.5000       -55.0360        20.5280        12.9080        45.2250        75.0260
     3727.0000       -59.2500        20.5620        12.7100        22.1820        73.4820
     3727.5000       -63.9060        20.5850        12.4520         1.6490        74.0420
     3728.0000       -67.9280        20.6340        12.1950         1.7410        75.8510
     3728.5000       -71.3650        20.3930        11.9560         1.7490        77.6600
     3729.0000       -73.6780        19.9300        11.6550         1.7040        79.4690
     3729.5000       -74.4210        19.1070        11.0600         1.6560        80.5210
     3730.0000       -74.7900        18.1600        10.3060         1.6240        81.1210
     3730.5000       -74.9030        17.2080         8.7510         1.6160        79.4770
     3731.0000       -75.0130        16.2650         7.9340         1.6300        78.1450
     3731.5000       -75.0580        15.3270         7.1990         1.6290        78.3430
     3732.0000       -75.1220        14.2990         6.4120         1.6140        79.5630
     3732.5000       -74.9130        13.1600         5.6830         1.5990        80.7200
     3733.0000       -74.8610        12.1230         4.9340         1.5840        81.8150
     3733.5000       -73.9120        11.1760         4.2040         1.5690        81.9150
     3734.0000       -71.9250         9.8210         3.4640         1.5540        80.2810
     3734.5000       -68.0480         8.4140         2.9210         1.5390        78.6410
     3735.0000       -63.9440         7.0080         2.5160         1.5240        70.8630
     3735.5000       -59.7540         5.8430         2.1080         1.5090        63.4600
     3736.0000       -56.4110         5.2580         1.8640         1.4940        57.5100
     3736.5000       -52.7860         4.5580         1.7590         1.4790        57.1130
     3737.0000       -50.8360         4.1530         1.8630         1.4650        57.2120
     3737.5000       -51.4730         4.3170         1.9190         1.4500        57.0570
     3738.0000       -51.0070         6.2950         2.0320         1.4350        58.2570
     3738.5000       -51.5110        10.3010         2.2660         1.4200        59.7920
     3739.0000       -52.1780        16.0600         2.5430         1.4050        58.3100
     3739.5000       -51.6460        22.6700         3.6310         1.3900        57.0450
     3740.0000       -50.7060        26.3050         5.2410         1.3750        55.7800
     3740.5000       -50.1440        25.5020         9.0960         1.3600        54.5150
     3741.0000       -49.9330        25.5020        27.5100         1.3450        53.1450
     3741.5000       -48.9920        33.3020        28.7150         1.3300        55.8230
     3742.0000       -47.6380        40.2740        30.3210         1.3150        55.9230
     3742.5000       -46.4110        47.5900        27.4850         1.3010        51.0020
     3743.0000       -44.9380        47.5900        23.9360         1.2860        40.0570
     3743.5000       -41.5010        30.3210        20.2810         1.2710        40.0790
     3744.0000       -38.1070        19.3370        18.9360         1.2560        40.1010
     3744.5000       -34.6630        19.1370        18.6550         1.2410        40.1230
     3745.0000       -31.2930        19.3370        17.7080         1.2260        40.1460
     3745.5000       -27.5600        19.9000        16.5590         1.2110        40.1680
     3746.0000       -24.8950        35.2160        14.5710         1.1960        40.1900
     3746.5000       -24.9240        30.3210        15.3540         1.1970        40.1900
     3747.0000       -24.9240        30.3210        15.3540         1.1970        40.1900
     3747.5000       -24.9240        30.3210        15.3540         1.1970        40.1900
     3748.0000       -24.9240        30.3210        15.3540         1.1970        40.1900
     3748.5000       -24.9240        30.3210        15.3540         1.1970        40.1900
     3749.0000       -24.9240        30.3210        15.3540         1.1970        40.1900
     3749.5000       -24.9240        30.3210        15.3540         1.1970        40.1900
     3750.0000       -24.9240        30.3210        15.3540         1.1970        40.1900
