~Version Information
 VERS  .     3.00 : LOG ASCII STANDARD -VERSION 3.0
 WRAP  .     NO   : ONE LINE PER DEPTH STEP
 DLM   .    SPACE : DELIMITING CHARACTER BETWEEN DATA COLUMNS
~WELL INFORMATION
#MNEM  .UNIT        DATA TYPE                  INFORMATION
#------.------ ----------------------------- : -------------------------
 STRT  .F          466.0000                  : START DEPTH
 STOP  .F         3750.0000                  : STOP DEPTH
 STEP  .F            0.5000                  : STEP LENGTH
 NULL  .          -999.2500                  : NO VALUE
 COMP  .      BAILEY-SLBURN OIL & GAS LTD.   : COMPANY
 WELL  .      BAYSEL RETLAW 6-8-13-18        : WELL
 FLD   .      RETLAW                         : FIELD
 LOC   .      06-08-013-18W4                 : LOCATION
 PROV  .      ALBERTA                        : PROVINCE
 SRVC  .      SCHLUMBERGER                   : SERVICE COMPANY
 DATE  .      OCT-19-1964                    : LOGDATE
 UWI   .      100060801318W400               : UNIQUE WELL ID
 LIC   .      0026947                        : LICENSE NO.
~CURVE INFORMATION
#MNEM  .UNIT        API CODE                   CURVE DESCRIPTION
#------.------ ----------------------------- : -------------------------
 DEPT  .F                                    : 
 SP    .mv       07 010 01 00                : Spontaneous Potential
 SN    .ohmm     05 040 16 00                : Short Normal 16"
 LN    .ohmm     05 060 64 00                : Long Normal 64"
 GR    .gapi     60 310 00 00                : Gamma Ray
 DT    .us/f     60 520 00 00                : Delta t
~PARAMETER INFORMATION
#MNEM  .UNIT        VALUE                      DESCRIPTION
#------.------ ----------------------------- : -------------------------
 EKB   .F           2699.0000                : Kelly bushing
 EGL   .F           2686.0000                : Ground level
 EDF   .F           0.0000                   : Drilling floor
 EPD   .F           2686.0000                : Permanent datum
 TD    .F           3750.0000                : Total depth
 DATE  .mm/dd/yyyy  OCT-19-1964              : Date Logged
 DD    .ft          3750                     : Depth Driller
 DL    .ft          3761                     : Depth Logger
 BLI   .ft          3750                     : Bottom Log Interval
 TLI   .ft          466                      : Top Log Interval
 CTD1  .ft          466                      : Casing Driller 1
 CTL1  .ft          466                      : Casing Logger 1
 BS    .inch        7 7/8                    : Bit Size
 DFT   .            POLY PLASTIC             : Type Fluid In Hole
 DFD   .lb/gal      10.9                     : Mud Weight
 DFV   .sec         74                       : Viscosity
 DFPH  .            9.5                      : pH
 DFL   .gal         3.2                      : Fluid Loss
 RM    .ohmm        1.51                     : Rm
 EMT   .F           67                       : Rm Meas. Temp.
 RMF   .ohmm        1.05                     : Rmf
 MFT   .F           80                       : Rmf Meas. Temp.
 RMC   .ohmm        3.0                      : Rmc
 MCST  .F           78                       : Rmc Meas. Temp.
 RMB   .ohmm        1.18                     : Rm. At BHT
 BHT   .F           86                       : BHT.
~TOPS_Definition
 TOPN.        :  Top Name     {S} 
 TOPT.F       :  Top Depth    {F} 
~TOPS_Data | TOPS_Definition
 Kpakowki             865.2  
 Kmilk_rv             1029.9  
 Kcolorado            1423.9  
 Kmed_hat             1583.0  
 K2nd_ws              2319.9  
 K2WS_SS_CW           2371.4  
 KBFS_CW              2584.0  
 Kbfs                 2584.0  
 Kbow_isl             2659.4  
 Kbi_ss               2685.4  
 Kbsl_colo            3085.0  
 Kmannvl              3101.4  
 Kmannvl_CW           3101.7  
 Kmannvl_UBeow CLNY MKR 3181.4  
 KMNVL_MID MKR - BROWN PICK_CW  3260.8  
 MNVL Teal Marker     3327.4  
 Kmann_GP CH Llithic_TOP(Green) 3378.9  
 Kmann_GP CH Lithic_Base 3446.5  
 KmannUmkr            3448.2  
 Kglauc_ss            3494.4  
 KGLAUC_SS_CW         3496.1  
 KglaucCHSS           3516.7  
 Kglauc CHSS Base     3597.8  
 Kostracod            3600.1  
 Ksunburst            3602.7  
 KSunburst CH Sand    3628.0  
 MLivingstn_CW        3735.9  
 Mlivngstn            3737.9  
~Ascii       DEPTH           SP           SN           LN           GR           DT
# ...
     2201.5000       -40.4440        15.8970        13.3100       124.1580        90.8470
     2202.0000       -40.5740        15.5050        12.9950       131.5760        90.9590
     2202.5000       -40.7220        15.1190        12.6840       136.0900        91.3450
     2203.0000       -40.6950        14.7310        12.3700       131.2630        91.9260
     2203.5000       -40.6400        14.3430        12.0590       132.3260        92.5990
     2204.0000       -40.5670        13.9540        11.7450       133.2980        93.2710
     2204.5000       -40.5520        13.5480        11.4110       131.5620        93.9430
     2205.0000       -40.3670        13.4580        11.1880       129.0560        94.6310
     2205.5000       -39.7980        13.4590        11.0000       126.7120        94.9300
     2206.0000       -39.6820        13.4550        10.9970       124.4910        94.9300
     2206.5000       -39.6430        13.4710        11.0850       124.3170        94.9300
     2207.0000       -39.5600        13.5120        11.1660       124.2910        93.7990
     2207.5000       -39.6510        13.5520        11.3720       124.5310        93.2370
     2208.0000       -39.9840        13.6080        11.5730       125.8630        92.2410
     2208.5000       -40.2940        13.7050        11.8340       126.3000        91.6430
     2209.0000       -40.2430        13.9810        12.1710       124.1080        91.2450
     2209.5000       -40.1080        14.3150        12.5170       122.2340        90.7470
     2210.0000       -39.9940        14.6390        12.8610       117.8590        90.1490
     2210.5000       -39.8690        14.9710        13.2060       111.1420        88.6880
     2211.0000       -39.7650        15.2940        13.5490       107.2930        87.4660
     2211.5000       -39.9200        15.6290        13.8980       109.5670        86.2440
     2212.0000       -40.1270        15.9440        14.2270       112.1820        84.7710
     2212.5000       -40.3280        16.3000        14.2780       112.5010        85.2590
     2213.0000       -40.5120        16.4770        14.3030       110.1440        86.8540
     2213.5000       -40.4170        16.4580        14.3020       106.6760        88.4500
     2214.0000       -40.2770        16.4380        14.3030       108.0750        90.1790
     2214.5000       -40.1450        16.3600        14.2940       115.2820        92.1340
     2215.0000       -40.0110        16.2980        14.2050       113.9740        94.2330
     2215.5000       -39.8730        16.2280        14.1020       112.4040        92.8040
     2216.0000       -39.7460        16.1620        14.0020       109.8190        91.2620
     2216.5000       -39.5970        16.0940        13.9000       111.9990        89.7200
     2217.0000       -39.5420        16.0260        13.8000       118.1940        88.9540
     2217.5000       -39.5280        15.9590        13.6980       116.0230        90.2320
     2218.0000       -39.6450        15.8920        13.5980       114.7680        93.4360
     2218.5000       -39.8260        15.8250        13.5040       117.3910        92.5400
     2219.0000       -40.2400        15.7570        13.5040       116.6950        95.0490
     2219.5000       -40.7130        15.6920        13.4530       115.1050        98.2170
     2220.0000       -40.8840        15.6170        13.3340       118.8260        97.0750
     2220.5000       -40.6670        15.5350        13.2860       122.5470        95.2790
     2221.0000       -40.3840        15.4530        13.2940       127.6950        93.4830
     2221.5000       -40.1460        15.3760        13.3960       126.6480        91.6870
     2222.0000       -40.0610        15.2860        13.5000       123.0140        89.8910
     2222.5000       -39.9560        15.2790        13.6570       120.0320        88.5560
     2223.0000       -40.0850        15.4730        13.7890       116.8730        88.5560
     2223.5000       -40.3180        15.6950        13.7800       113.5480        88.6550
     2224.0000       -40.1590        15.8020        13.7250       111.6370        88.9540
     2224.5000       -40.0060        15.5320        13.6700       113.4930        88.9540
     2225.0000       -39.8340        15.6210        13.7300       116.7020        91.4190
     2225.5000       -39.6910        15.7480        13.7860       120.8720        95.0300
     2226.0000       -39.4840        15.7160        13.8550       122.0120        95.1290
     2226.5000       -39.0080        15.5730        13.8770       120.3240        95.2290
     2227.0000       -38.4840        15.4540        13.6910       117.2780        95.2290
     2227.5000       -38.4630        15.3290        13.5040       115.1580        96.2250
     2228.0000       -38.6440        15.1980        13.3270       111.9840       100.6080
     2228.5000       -39.2010        15.1110        13.1930       113.0660       103.5320
     2229.0000       -39.7330        15.0390        13.1820       114.9620       105.4880
     2229.5000       -39.9360        14.9340        13.1590       116.8830       105.6870
     2230.0000       -40.1380        14.8340        12.9680       117.1970       101.1220
     2230.5000       -40.0870        14.7140        12.7910       119.8640        96.8790
     2231.0000       -40.0560        14.6120        12.6140       121.8360        93.2370
     2231.5000       -40.0120        14.5010        12.4340       119.9770        96.1210
     2232.0000       -39.9730        14.3960        12.2930       121.1260        99.4120
     2232.5000       -39.9320        14.2890        12.2580       122.2530        98.3560
     2233.0000       -39.8910        14.2560        12.2570       122.4510        96.8390
     2233.5000       -39.8520        14.2610        12.2280       121.4750        95.3230
     2234.0000       -39.8100        14.2590        12.2030       120.9950        92.7390
     2234.5000       -39.7730        14.2600        12.1780       118.6640        93.1110
     2235.0000       -39.6770        14.2600        12.1530       115.9140        94.3670
     2235.5000       -39.4610        14.2590        12.1290       113.2140        96.4240
     2236.0000       -39.2430        14.2320        12.1030       111.5330        96.2180
     2236.5000       -39.0230        14.1930        12.0790       113.9710        95.6480
     2237.0000       -38.8030        14.1560        12.0270       116.3040        95.0300
     2237.5000       -38.5780        14.1180        11.9260       118.6700        95.7400
     2238.0000       -38.6430        14.0810        11.8240       121.1200        96.9220
     2238.5000       -38.8860        14.0420        11.7210       123.9560        95.5280
     2239.0000       -39.2750        14.0060        11.6190       127.0510        95.0990
     2239.5000       -39.6890        13.9350        11.5130       131.0390        94.6330
     2240.0000       -39.6390        13.8060        11.4970       133.2170        94.1680
     2240.5000       -39.4890        13.6760        11.5040       133.5000        93.7350
     2241.0000       -39.3630        13.6690        11.4960       132.2130        93.7350
     2241.5000       -39.2240        13.6940        11.5100       127.8310        93.7350
     2242.0000       -39.0900        13.6840        11.4000       124.0230        93.7350
     2242.5000       -38.9850        13.6370        11.1040       119.5270        93.7350
     2243.0000       -39.4890        13.5920        10.8390       117.6250        93.7350
     2243.5000       -39.9010        13.5460        10.5270       121.1160        94.0340
     2244.0000       -40.3190        13.5010        10.3630       124.4430        96.7700
     2244.5000       -40.6140        13.4550        10.3410       128.3230        99.0440
     2245.0000       -40.7230        13.4090        10.2790       129.2750       100.7070
     2245.5000       -40.9770        13.3640        10.2350       127.6440       100.7070
