~Version Information
 VERS  .     3.00 : LOG ASCII STANDARD -VERSION 3.0
 WRAP  .     NO   : ONE LINE PER DEPTH STEP
 DLM   .    SPACE : DELIMITING CHARACTER BETWEEN DATA COLUMNS
~WELL INFORMATION
#MNEM  .UNIT        DATA TYPE                  INFORMATION
#------.------ ----------------------------- : -------------------------
 STRT  .F          466.0000                  : START DEPTH
 STOP  .F         3750.0000                  : STOP DEPTH
 STEP  .F            0.5000                  : STEP LENGTH
 NULL  .          -999.2500                  : NO VALUE
 COMP  .      BAILEY-SLBURN OIL & GAS LTD.   : COMPANY
 WELL  .      BAYSEL RETLAW 6-8-13-18        : WELL
 FLD   .      RETLAW                         : FIELD
 LOC   .      06-08-013-18W4                 : LOCATION
 PROV  .      ALBERTA                        : PROVINCE
 SRVC  .      SCHLUMBERGER                   : SERVICE COMPANY
 DATE  .      OCT-19-1964                    : LOGDATE
 UWI   .      100060801318W400               : UNIQUE WELL ID
 LIC   .      0026947                        : LICENSE NO.
~CURVE INFORMATION
#MNEM  .UNIT        API CODE                   CURVE DESCRIPTION
#------.------ ----------------------------- : -------------------------
 DEPT  .F                                    : 
 SP    .mv       07 010 01 00                : Spontaneous Potential
 SN    .ohmm     05 040 16 00                : Short Normal 16"
 LN    .ohmm     05 060 64 00                : Long Normal 64"
 GR    .gapi     60 310 00 00                : Gamma Ray
 DT    .us/f     60 520 00 00                : Delta t
~PARAMETER INFORMATION
#MNEM  .UNIT        VALUE                      DESCRIPTION
#------.------ ----------------------------- : -------------------------
 EKB   .F           2699.0000                : Kelly bushing
 EGL   .F           2686.0000                : Ground level
 EDF   .F           0.0000                   : Drilling floor
 EPD   .F           2686.0000                : Permanent datum
 TD    .F           3750.0000                : Total depth
 DATE  .mm/dd/yyyy  OCT-19-1964              : Date Logged
 DD    .ft          3750                     : Depth Driller
 DL    .ft          3761                     : Depth Logger
 BLI   .ft          3750                     : Bottom Log Interval
 TLI   .ft          466                      : Top Log Interval
 CTD1  .ft          466                      : Casing Driller 1
 CTL1  .ft          466                      : Casing Logger 1
 BS    .inch        7 7/8                    : Bit Size
 DFT   .            POLY PLASTIC             : Type Fluid In Hole
 DFD   .lb/gal      10.9                     : Mud Weight
 DFV   .sec         74                       : Viscosity
 DFPH  .            9.5                      : pH
 DFL   .gal         3.2                      : Fluid Loss
 RM    .ohmm        1.51                     : Rm
 EMT   .F           67                       : Rm Meas. Temp.
 RMF   .ohmm        1.05                     : Rmf
 MFT   .F           80                       : Rmf Meas. Temp.
 RMC   .ohmm        3.0                      : Rmc
 MCST  .F           78                       : Rmc Meas. Temp.
 RMB   .ohmm        1.18                     : Rm. At BHT
 BHT   .F           86                       : BHT.
~TOPS_Definition
 TOPN.        :  Top Name     {S} 
 TOPT.F       :  Top Depth    {F} 
~TOPS_Data | TOPS_Definition
 Kpakowki             865.2  
 Kmilk_rv             1029.9  
 Kcolorado            1423.9  
 Kmed_hat             1583.0  
 K2nd_ws              2319.9  
 K2WS_SS_CW           2371.4  
 KBFS_CW              2584.0  
 Kbfs                 2584.0  
 Kbow_isl             2659.4  
 Kbi_ss               2685.4  
 Kbsl_colo            3085.0  
 Kmannvl              3101.4  
 Kmannvl_CW           3101.7  
 Kmannvl_UBeow CLNY MKR 3181.4  
 KMNVL_MID MKR - BROWN PICK_CW  3260.8  
 MNVL Teal Marker     3327.4  
 Kmann_GP CH Llithic_TOP(Green) 3378.9  
 Kmann_GP CH Lithic_Base 3446.5  
 KmannUmkr            3448.2  
 Kglauc_ss            3494.4  
 KGLAUC_SS_CW         3496.1  
 KglaucCHSS           3516.7  
 Kglauc CHSS Base     3597.8  
 Kostracod            3600.1  
 Ksunburst            3602.7  
 KSunburst CH Sand    3628.0  
 MLivingstn_CW        3735.9  
 Mlivngstn            3737.9  
~Ascii       DEPTH           SP           SN           LN           GR           DT
# ...
     1133.5000       -57.0780         7.7430         6.2900        73.2810       114.1260
     1134.0000       -56.9720         7.7530         6.4170        74.5570       112.0440
     1134.5000       -56.5390         7.9110         6.5400        75.4060       109.9610
     1135.0000       -56.8610         8.0510         6.6640        73.4740       107.8780
     1135.5000       -57.3810         8.1990         6.7900        71.4980       107.0820
     1136.0000       -57.9540         8.3440         6.9110        71.0250       107.0820
     1136.5000       -58.2660         8.4890         7.0430        71.7080       106.9820
     1137.0000       -58.0930         8.6390         7.1070        71.8690       107.1810
     1137.5000       -57.9950         8.7680         7.0980        73.2750       108.5260
     1138.0000       -57.8570         8.7890         7.1050        76.7430       109.7510
     1138.5000       -57.7420         8.7220         7.0890        79.9470       110.9760
     1139.0000       -57.6120         8.5860         6.9670        81.7130       112.2010
     1139.5000       -57.4770         8.4620         6.8320        80.7780       113.1570
     1140.0000       -57.2250         8.3320         6.7000        79.3830       113.7550
     1140.5000       -56.9490         8.2050         6.5660        77.9050       114.2450
     1141.0000       -56.6280         8.0760         6.4340        78.5900       114.7350
     1141.5000       -56.4630         7.9480         6.3000        79.6340       115.2250
     1142.0000       -56.4650         7.8210         6.1780        81.2210       115.5480
     1142.5000       -56.6170         7.6910         6.1080        80.4870       115.1490
     1143.0000       -57.0400         7.5800         6.0880        77.9700       114.9210
     1143.5000       -57.4180         7.5240         6.0560        75.4870       114.3360
     1144.0000       -57.3620         7.4770         6.0610        74.5000       113.7500
     1144.5000       -57.2130         7.4540         6.0560        77.7740       113.1650
     1145.0000       -57.0860         7.4760         6.0630        79.9320       112.5800
     1145.5000       -56.9500         7.6230         6.0500        78.5420       111.9940
     1146.0000       -56.8180         7.7670         6.1390        76.9730       111.4090
     1146.5000       -56.6850         7.9090         6.3350        79.3300       110.8670
     1147.0000       -56.5500         8.0560         6.4860        81.8270       109.1330
     1147.5000       -56.4230         8.1940         6.6590        84.3550       107.2810
     1148.0000       -56.2460         8.3440         6.7720        86.8230       107.2810
     1148.5000       -55.6540         8.3720         6.7480        89.3290       107.2810
     1149.0000       -54.9870         8.3400         6.7220        89.9440       107.3800
     1149.5000       -54.3440         8.1550         6.6930        89.1090       107.4800
     1150.0000       -53.6260         7.8880         6.6680        90.2210       107.8250
     1150.5000       -52.2760         7.6700         6.6370        91.9650       108.2960
     1151.0000       -50.8790         7.4110         6.6180        93.5240       108.7670
     1151.5000       -49.4220         7.4840         6.5630        91.3800       109.2380
     1152.0000       -48.3420         7.6440         6.4950        84.9520       109.7100
     1152.5000       -49.7210         7.7880         6.5590        80.9130       110.1810
     1153.0000       -51.3990         7.9380         6.6310        78.7410       110.4680
     1153.5000       -52.8310         8.0880         6.7070        80.7040       110.1690
     1154.0000       -53.6890         8.2480         6.7800        82.6450       109.9700
     1154.5000       -54.1400         8.4280         6.8550        84.7650       109.2580
     1155.0000       -53.5330         8.5950         6.9290        86.7710       108.5090
     1155.5000       -52.0370         8.5230         7.0040        88.8640       107.7790
     1156.0000       -49.8930         8.4330         7.0780        90.8820       106.9420
     1156.5000       -47.9420         8.2670         7.1520        92.9920       106.1850
     1157.0000       -45.8870         8.0690         7.2260        94.5070       104.9900
     1157.5000       -43.9160         8.0210         7.3020        95.5400       103.7950
     1158.0000       -41.8400         8.1690         7.3660        96.1840       103.2970
     1158.5000       -40.2130         8.2940         7.2560        93.1500       101.2050
     1159.0000       -39.9600         8.4270         7.1100        90.2300       101.4140
     1159.5000       -39.9910         8.5580         6.9700        86.3740       101.7210
     1160.0000       -40.1340         8.4760         6.8270        87.6000       102.5310
     1160.5000       -40.2530         8.2030         6.6860        91.4790       103.5270
     1161.0000       -40.3740         7.9480         6.5440        94.3440       104.5220
     1161.5000       -40.5130         7.6930         6.4020        98.1790       105.6870
     1162.0000       -40.6050         7.4200         6.2610        96.6710       105.4500
     1162.5000       -40.8910         7.2840         6.1170        92.5560       105.1640
     1163.0000       -42.3050         7.2680         5.9910        89.4290       105.3380
     1163.5000       -43.5960         7.2690         5.9700        85.4630       106.2290
     1164.0000       -44.9560         7.2820         5.9530        83.7250       107.1200
     1164.5000       -46.2050         7.2990         5.9360        85.0560       108.0110
     1165.0000       -47.7450         7.2410         5.9190        88.5670       108.9020
     1165.5000       -47.2640         7.1080         5.9010        92.8590       109.7710
     1166.0000       -45.9480         6.9950         5.8850        93.9660       109.0040
     1166.5000       -44.9400         6.8650         5.8660        89.6600       108.2550
     1167.0000       -43.7680         6.7570         5.8600        89.2680       107.5070
     1167.5000       -42.7140         6.6710         5.8570        92.5310       106.4840
     1168.0000       -41.8520         6.9220         5.8860        95.2720       106.8510
     1168.5000       -42.7620         7.2940         5.9410        95.2960       107.4290
     1169.0000       -44.7950         7.2600         5.9890        94.6210       108.1770
     1169.5000       -46.6600         7.2280         6.0400        92.4670       107.4070
     1170.0000       -45.4660         7.1810         6.0900        89.9820       106.3180
     1170.5000       -42.9800         7.2760         6.1400        87.5780       104.9900
     1171.0000       -42.6600         7.4720         6.1900        85.6760       105.0900
     1171.5000       -42.8950         7.6300         6.2400        86.3710       105.1890
     1172.0000       -43.2410         7.8140         6.2910        91.3240       105.5280
     1172.5000       -42.7550         7.8260         6.3390        96.0430       105.9860
     1173.0000       -42.3820         7.7460         6.3880       101.1190       105.4340
     1173.5000       -41.9870         7.7100         6.4470       101.6000       104.8060
     1174.0000       -42.0300         7.6980         6.5170        99.0600       104.1780
     1174.5000       -42.3390         7.6980         6.6180        98.3430       103.5500
     1175.0000       -42.8710         7.7330         6.7040       102.9940       102.9210
     1175.5000       -42.7070         7.7940         6.7980       101.2360       102.2930
     1176.0000       -41.6470         7.8430         6.8850        97.7390       101.4040
     1176.5000       -40.3800         7.8970         6.9810        94.5080       100.9060
     1177.0000       -39.1420         7.9500         7.0610        95.8890       100.5080
     1177.5000       -37.8830         8.0030         7.1750        98.9590       100.2090
