~Version Information
 VERS  .     3.00 : LOG ASCII STANDARD -VERSION 3.0
 WRAP  .     NO   : ONE LINE PER DEPTH STEP
 DLM   .    SPACE : DELIMITING CHARACTER BETWEEN DATA COLUMNS
~WELL INFORMATION
#MNEM  .UNIT        DATA TYPE                  INFORMATION
#------.------ ----------------------------- : -------------------------
 STRT  .F          466.0000                  : START DEPTH
 STOP  .F         3750.0000                  : STOP DEPTH
 STEP  .F            0.5000                  : STEP LENGTH
 NULL  .          -999.2500                  : NO VALUE
 COMP  .      BAILEY-SLBURN OIL & GAS LTD.   : COMPANY
 WELL  .      BAYSEL RETLAW 6-8-13-18        : WELL
 FLD   .      RETLAW                         : FIELD
 LOC   .      06-08-013-18W4                 : LOCATION
 PROV  .      ALBERTA                        : PROVINCE
 SRVC  .      SCHLUMBERGER                   : SERVICE COMPANY
 DATE  .      OCT-19-1964                    : LOGDATE
 UWI   .      100060801318W400               : UNIQUE WELL ID
 LIC   .      0026947                        : LICENSE NO.
~CURVE INFORMATION
#MNEM  .UNIT        API CODE                   CURVE DESCRIPTION
#------.------ ----------------------------- : -------------------------
 DEPT  .F                                    : 
 SP    .mv       07 010 01 00                : Spontaneous Potential
 SN    .ohmm     05 040 16 00                : Short Normal 16"
 LN    .ohmm     05 060 64 00                : Long Normal 64"
 GR    .gapi     60 310 00 00                : Gamma Ray
 DT    .us/f     60 520 00 00                : Delta t
~PARAMETER INFORMATION
#MNEM  .UNIT        VALUE                      DESCRIPTION
#------.------ ----------------------------- : -------------------------
 EKB   .F           2699.0000                : Kelly bushing
 EGL   .F           2686.0000                : Ground level
 EDF   .F           0.0000                   : Drilling floor
 EPD   .F           2686.0000                : Permanent datum
 TD    .F           3750.0000                : Total depth
 DATE  .mm/dd/yyyy  OCT-19-1964              : Date Logged
 DD    .ft          3750                     : Depth Driller
 DL    .ft          3761                     : Depth Logger
 BLI   .ft          3750                     : Bottom Log Interval
 TLI   .ft          466                      : Top Log Interval
 CTD1  .ft          466                      : Casing Driller 1
 CTL1  .ft          466                      : Casing Logger 1
 BS    .inch        7 7/8                    : Bit Size
 DFT   .            POLY PLASTIC             : Type Fluid In Hole
 DFD   .lb/gal      10.9                     : Mud Weight
 DFV   .sec         74                       : Viscosity
 DFPH  .            9.5                      : pH
 DFL   .gal         3.2                      : Fluid Loss
 RM    .ohmm        1.51                     : Rm
 EMT   .F           67                       : Rm Meas. Temp.
 RMF   .ohmm        1.05                     : Rmf
 MFT   .F           80                       : Rmf Meas. Temp.
 RMC   .ohmm        3.0                      : Rmc
 MCST  .F           78                       : Rmc Meas. Temp.
 RMB   .ohmm        1.18                     : Rm. At BHT
 BHT   .F           86                       : BHT.
~TOPS_Definition
 TOPN.        :  Top Name     {S} 
 TOPT.F       :  Top Depth    {F} 
~TOPS_Data | TOPS_Definition
 Kpakowki             865.2  
 Kmilk_rv             1029.9  
 Kcolorado            1423.9  
 Kmed_hat             1583.0  
 K2nd_ws              2319.9  
 K2WS_SS_CW           2371.4  
 KBFS_CW              2584.0  
 Kbfs                 2584.0  
 Kbow_isl             2659.4  
 Kbi_ss               2685.4  
 Kbsl_colo            3085.0  
 Kmannvl              3101.4  
 Kmannvl_CW           3101.7  
 Kmannvl_UBeow CLNY MKR 3181.4  
 KMNVL_MID MKR - BROWN PICK_CW  3260.8  
 MNVL Teal Marker     3327.4  
 Kmann_GP CH Llithic_TOP(Green) 3378.9  
 Kmann_GP CH Lithic_Base 3446.5  
 KmannUmkr            3448.2  
 Kglauc_ss            3494.4  
 KGLAUC_SS_CW         3496.1  
 KglaucCHSS           3516.7  
 Kglauc CHSS Base     3597.8  
 Kostracod            3600.1  
 Ksunburst            3602.7  
 KSunburst CH Sand    3628.0  
 MLivingstn_CW        3735.9  
 Mlivngstn            3737.9  
~Ascii       DEPTH           SP           SN           LN           GR           DT
# ...
     1311.5000       -36.3140        14.3750        12.7520        97.0410        90.5650
     1312.0000       -36.7370        14.6110        12.8050        99.5600        90.1730
     1312.5000       -37.0760        14.8850        12.8750       102.1900        89.7820
     1313.0000       -36.6010        15.0670        12.8560       104.7900        89.3530
     1313.5000       -35.9880        15.0580        12.8680       107.4630        90.4810
     1314.0000       -35.7770        15.0670        12.8410       108.5310        91.7320
     1314.5000       -35.8340        15.0390        12.6090       109.9290        92.9820
     1315.0000       -35.9230        14.7730        12.3280       108.9200        94.2330
     1315.5000       -36.0070        14.4640        12.0700       106.2630        94.6310
     1316.0000       -36.0910        14.1610        11.7810       103.4170        95.6270
     1316.5000       -36.1800        13.8770        11.6410       104.0820        97.4200
     1317.0000       -36.2580        13.8760        11.6080       106.5320        95.5280
     1317.5000       -36.3580        14.1080        11.7390       107.5860        94.0340
     1318.0000       -36.4170        14.3780        12.0210       110.4770        92.6390
     1318.5000       -36.5550        14.5890        12.2810       102.6910        90.4480
     1319.0000       -36.2160        14.6040        12.5410       104.0130        87.4600
     1319.5000       -35.4290        14.5200        12.8230       108.5260        88.1460
     1320.0000       -34.7730        14.8890        13.0230       107.3110        89.1160
     1320.5000       -34.2410        15.6960        13.1410       101.2020        90.0860
     1321.0000       -33.7510        16.2450        13.2800       100.2120        91.2450
     1321.5000       -33.2670        16.0890        13.0760       103.4230        91.4440
     1322.0000       -32.7560        15.8160        12.9370       105.7770        91.4440
     1322.5000       -32.5720        15.5800        12.7580       101.4670        91.4440
     1323.0000       -32.6700        15.3110        12.6370       105.4180        90.5480
     1323.5000       -32.6970        15.2240        12.6850       112.9550        90.5480
     1324.0000       -32.8330        15.2600        12.7500       111.7770        90.6470
     1324.5000       -33.4270        15.3280        12.8110       110.6920        90.8470
     1325.0000       -34.0530        15.4820        12.8740       109.2530        91.2450
     1325.5000       -34.5330        15.6040        12.9350       107.9540        91.4440
     1326.0000       -34.5720        15.7240        12.9980       110.4230        91.5440
     1326.5000       -34.5330        15.7150        13.0260       114.2080        91.6430
     1327.0000       -34.2590        15.6870        13.0300       118.2930        91.6430
     1327.5000       -33.9840        15.6660        13.0380       116.9410        91.4440
     1328.0000       -33.7700        15.6380        13.0430       112.1080        91.1850
     1328.5000       -33.7060        15.6280        13.0500       111.1430        90.7770
     1329.0000       -33.6560        15.6570        13.0560       114.2890        90.3690
     1329.5000       -33.6030        15.6760        13.0630       115.9850        90.0500
     1330.0000       -33.5690        15.7060        13.0690       112.4130        90.7970
     1330.5000       -33.6140        15.7310        13.0760       107.6330        91.5440
     1331.0000       -33.6480        15.7600        13.0820       106.6740        91.6710
     1331.5000       -33.7030        15.7800        13.0890       108.3870        91.8350
     1332.0000       -33.7170        15.7780        13.0950       109.7910        91.6280
     1332.5000       -33.8100        15.7890        13.1010       110.5030        90.7100
     1333.0000       -33.8710        15.8580        13.1000       107.3710        90.0500
     1333.5000       -34.4550        15.9210        13.1020       104.5680        90.0500
     1334.0000       -35.0520        15.9830        13.0990       105.7570        90.0500
     1334.5000       -34.6260        16.0500        13.1050       110.4500        90.1650
     1335.0000       -34.3550        15.9730        13.0580       109.6770        90.4140
     1335.5000       -34.0880        15.8440        12.9080       105.4330        90.6620
     1336.0000       -33.7980        15.7270        12.7590       105.0920        90.9110
     1336.5000       -33.7590        15.6020        12.5990       105.3170        91.1590
     1337.0000       -33.7670        15.4710        12.5710       105.4980        91.4080
     1337.5000       -33.8460        15.3170        12.5600       105.5330        91.6560
     1338.0000       -33.9550        15.3200        12.5050       107.1690        91.9050
     1338.5000       -34.2570        15.4080        12.5830       110.4650        92.1540
     1339.0000       -34.5650        15.5160        12.8310       112.8240        92.4020
     1339.5000       -35.0050        15.6790        13.1100       112.2260        92.6510
     1340.0000       -34.7330        15.8440        13.2900       111.2350        92.8390
     1340.5000       -34.5180        16.0100        13.5600       110.7720        91.9500
     1341.0000       -34.5900        16.1760        13.9550       112.2900        91.1450
     1341.5000       -34.5250        16.3420        14.3130       113.7330        90.7470
     1342.0000       -34.1160        16.5060        14.6970       115.2620        90.3490
     1342.5000       -33.5460        16.6740        15.0550       116.5720        89.9500
     1343.0000       -33.0380        16.8350        15.1750       114.3820        89.7510
     1343.5000       -32.4530        17.0130        15.1400       108.8390        90.0130
     1344.0000       -32.1110        17.1160        15.0140       110.4460        90.4060
     1344.5000       -32.0950        17.0450        14.9000       117.1100        90.7990
     1345.0000       -31.9800        16.9120        14.7790       114.5150        91.1910
     1345.5000       -32.1100        16.7770        14.6610       115.3710        91.5840
     1346.0000       -32.4430        16.6420        14.5420       118.0580        91.9770
     1346.5000       -32.8060        16.5070        14.4220       120.4610        92.3410
     1347.0000       -32.9070        16.3720        14.3120       122.4570        92.3410
     1347.5000       -32.6550        16.2380        14.2700       120.8960        92.2910
     1348.0000       -32.5670        16.1050        14.2320       119.1760        92.2450
     1348.5000       -32.5710        16.0350        14.1710       117.3910        92.2000
     1349.0000       -32.5700        15.9630        14.1110       115.9890        92.1550
     1349.5000       -32.5710        15.9210        14.0490       115.2260        92.1410
     1350.0000       -32.5700        16.0220        13.9920       114.4630        92.1410
     1350.5000       -32.5720        16.0940        13.9260       113.3670        92.2520
     1351.0000       -32.5680        16.0950        13.8990       111.9210        92.3980
     1351.5000       -32.5750        16.0190        13.8740       110.5620        92.5430
     1352.0000       -32.5610        15.9380        13.8270       109.1020        92.7390
     1352.5000       -32.5870        15.8570        13.7940       107.9760        92.8390
     1353.0000       -32.4010        15.7770        13.7310       107.6850        92.7390
     1353.5000       -32.0520        15.6960        13.6360       106.7490        92.6390
     1354.0000       -31.7070        15.6150        13.5380       108.5700        92.5400
     1354.5000       -31.6170        15.5350        13.4970       112.8800        92.4400
     1355.0000       -31.8210        15.4530        13.4940       117.1940        92.4400
     1355.5000       -32.3050        15.3810        13.4480       118.5290        92.5400
