~Version Information
 VERS  .     3.00 : LOG ASCII STANDARD -VERSION 3.0
 WRAP  .     NO   : ONE LINE PER DEPTH STEP
 DLM   .    SPACE : DELIMITING CHARACTER BETWEEN DATA COLUMNS
~WELL INFORMATION
#MNEM  .UNIT        DATA TYPE                  INFORMATION
#------.------ ----------------------------- : -------------------------
 STRT  .F          466.0000                  : START DEPTH
 STOP  .F         3750.0000                  : STOP DEPTH
 STEP  .F            0.5000                  : STEP LENGTH
 NULL  .          -999.2500                  : NO VALUE
 COMP  .      BAILEY-SLBURN OIL & GAS LTD.   : COMPANY
 WELL  .      BAYSEL RETLAW 6-8-13-18        : WELL
 FLD   .      RETLAW                         : FIELD
 LOC   .      06-08-013-18W4                 : LOCATION
 PROV  .      ALBERTA                        : PROVINCE
 SRVC  .      SCHLUMBERGER                   : SERVICE COMPANY
 DATE  .      OCT-19-1964                    : LOGDATE
 UWI   .      100060801318W400               : UNIQUE WELL ID
 LIC   .      0026947                        : LICENSE NO.
~CURVE INFORMATION
#MNEM  .UNIT        API CODE                   CURVE DESCRIPTION
#------.------ ----------------------------- : -------------------------
 DEPT  .F                                    : 
 SP    .mv       07 010 01 00                : Spontaneous Potential
 SN    .ohmm     05 040 16 00                : Short Normal 16"
 LN    .ohmm     05 060 64 00                : Long Normal 64"
 GR    .gapi     60 310 00 00                : Gamma Ray
 DT    .us/f     60 520 00 00                : Delta t
~PARAMETER INFORMATION
#MNEM  .UNIT        VALUE                      DESCRIPTION
#------.------ ----------------------------- : -------------------------
 EKB   .F           2699.0000                : Kelly bushing
 EGL   .F           2686.0000                : Ground level
 EDF   .F           0.0000                   : Drilling floor
 EPD   .F           2686.0000                : Permanent datum
 TD    .F           3750.0000                : Total depth
 DATE  .mm/dd/yyyy  OCT-19-1964              : Date Logged
 DD    .ft          3750                     : Depth Driller
 DL    .ft          3761                     : Depth Logger
 BLI   .ft          3750                     : Bottom Log Interval
 TLI   .ft          466                      : Top Log Interval
 CTD1  .ft          466                      : Casing Driller 1
 CTL1  .ft          466                      : Casing Logger 1
 BS    .inch        7 7/8                    : Bit Size
 DFT   .            POLY PLASTIC             : Type Fluid In Hole
 DFD   .lb/gal      10.9                     : Mud Weight
 DFV   .sec         74                       : Viscosity
 DFPH  .            9.5                      : pH
 DFL   .gal         3.2                      : Fluid Loss
 RM    .ohmm        1.51                     : Rm
 EMT   .F           67                       : Rm Meas. Temp.
 RMF   .ohmm        1.05                     : Rmf
 MFT   .F           80                       : Rmf Meas. Temp.
 RMC   .ohmm        3.0                      : Rmc
 MCST  .F           78                       : Rmc Meas. Temp.
 RMB   .ohmm        1.18                     : Rm. At BHT
 BHT   .F           86                       : BHT.
~TOPS_Definition
 TOPN.        :  Top Name     {S} 
 TOPT.F       :  Top Depth    {F} 
~TOPS_Data | TOPS_Definition
 Kpakowki             865.2  
 Kmilk_rv             1029.9  
 Kcolorado            1423.9  
 Kmed_hat             1583.0  
 K2nd_ws              2319.9  
 K2WS_SS_CW           2371.4  
 KBFS_CW              2584.0  
 Kbfs                 2584.0  
 Kbow_isl             2659.4  
 Kbi_ss               2685.4  
 Kbsl_colo            3085.0  
 Kmannvl              3101.4  
 Kmannvl_CW           3101.7  
 Kmannvl_UBeow CLNY MKR 3181.4  
 KMNVL_MID MKR - BROWN PICK_CW  3260.8  
 MNVL Teal Marker     3327.4  
 Kmann_GP CH Llithic_TOP(Green) 3378.9  
 Kmann_GP CH Lithic_Base 3446.5  
 KmannUmkr            3448.2  
 Kglauc_ss            3494.4  
 KGLAUC_SS_CW         3496.1  
 KglaucCHSS           3516.7  
 Kglauc CHSS Base     3597.8  
 Kostracod            3600.1  
 Ksunburst            3602.7  
 KSunburst CH Sand    3628.0  
 MLivingstn_CW        3735.9  
 Mlivngstn            3737.9  
~Ascii       DEPTH           SP           SN           LN           GR           DT
      466.0000        19.4720         0.2580         0.1820        98.0590       173.5160
      466.5000        -2.0250         1.6870         0.2230        92.8140       166.1310
      467.0000       -16.8990         4.7380         0.4190        87.4890       157.1910
      467.5000       -20.6180         7.7300         2.3440        86.3280       143.8070
      468.0000       -26.3610         8.5520         4.6480        88.2150       128.0980
      468.5000       -27.0250         8.7250         5.2160        89.7400       125.5080
      469.0000       -27.6890         8.8270         5.8390        91.2790       127.2050
      469.5000       -28.3530         8.8260         6.4370        92.4120       130.1890
      470.0000       -29.0170         8.5400         7.4760        93.9430       130.5880
      470.5000       -29.6810         8.1580         8.5210        94.9480       127.9150
      471.0000       -30.2560         8.3080         8.7380        96.3940       124.8640
      471.5000       -30.5680         8.7010         8.9400        98.5940       121.8130
      472.0000       -30.8740         8.9720         8.4500       100.2690       116.9420
      472.5000       -31.1770         8.8890         7.2480       101.9710       118.0210
      473.0000       -31.4880         8.7560         6.0730        97.5770       120.9260
      473.5000       -31.7890         8.6680         5.5860        94.4370       120.3290
      474.0000       -32.0900         8.6870         5.6060        96.4560       121.2500
      474.5000       -32.0390         8.8390         5.5480        99.8860       122.2520
      475.0000       -31.8190         8.9560         5.5330       100.9260       123.2540
      475.5000       -31.6270         9.1230         5.5940        97.5790       124.3130
      476.0000       -31.4230         9.2300         5.7040        96.0200       122.4200
      476.5000       -31.2290         9.3330         6.4230        94.6170       125.4820
      477.0000       -31.1650         9.6730         7.5490        91.1550       127.5980
      477.5000       -31.1790         9.5560         8.5380        84.0110       129.7140
      478.0000       -31.1620         9.4930         9.8240        73.7650       131.8820
      478.5000       -31.2620        16.2950         9.5870        65.4490       131.8820
      479.0000       -31.5900        16.1990         8.9640        71.0770       132.3800
      479.5000       -31.9190        15.3500         8.4370        79.2280       132.6440
      480.0000       -32.2560        13.8460         7.9020        92.6550       132.7790
      480.5000       -32.5840        12.5280         7.3560        95.1280       132.5800
      481.0000       -32.9260        11.3610         6.8280        98.6040       128.6260
      481.5000       -33.1940         9.6690         6.2430       100.9540       124.6980
      482.0000       -33.3110         9.7750         5.8060       104.1340       122.8190
      482.5000       -33.4260         9.7280         5.6650        99.5410       123.1630
      483.0000       -33.5370         9.4720         5.4370        94.0930       123.8140
      483.5000       -33.5700         8.7810         5.4870        87.9640       123.9140
      484.0000       -33.5090         7.9750         5.5850        88.7960       124.6120
      484.5000       -33.4280         8.3830         5.6660        89.6810       125.2090
      485.0000       -33.3480         8.8510         5.7750        90.9640       125.4080
      485.5000       -33.2670         9.3200         5.7770        94.6970       125.8070
      486.0000       -33.1870         9.1240         5.6630        98.8050       126.2050
      486.5000       -33.0850         8.8220         5.5340       102.7530       127.4000
      487.0000       -32.9760         8.5260         5.6820       105.7920       127.7990
      487.5000       -32.8650         8.0780         6.0780       101.7800       127.1480
      488.0000       -32.7590         8.2170         6.4480        97.4790       124.5120
      488.5000       -32.6430         8.7780         6.8240        93.9500       118.7600
      489.0000       -32.6140         9.3100         7.2620        94.2560       113.5290
      489.5000       -32.8940        10.1890         8.2520        91.3440       108.2970
      490.0000       -33.3630        11.0960         9.3390        87.1280       103.0650
      490.5000       -33.8490        12.0260        10.3990        82.5480        98.5160
      491.0000       -34.3140        12.8500        11.4510        81.1860        99.2210
      491.5000       -34.8240        12.8860        12.4510        78.2620        99.8450
      492.0000       -35.0810        12.8820        12.4760        74.0680       100.4680
      492.5000       -34.8300        12.8350        12.5070        69.7520       101.0920
      493.0000       -34.5570        12.7990        12.4490        71.4540       101.3420
      493.5000       -34.3830        12.4790        12.3690        72.7550       101.4000
      494.0000       -34.4420        12.1770        11.5270        70.6650       101.4570
      494.5000       -34.5000        11.8610        10.7620        73.5260       101.5040
      495.0000       -34.5630        11.5530         9.9600        74.5060       101.5040
      495.5000       -34.6230        11.2420         9.1690        72.4120       103.2030
      496.0000       -34.6840        10.9280         8.3510        72.2440       104.6340
      496.5000       -34.7430        10.6200         7.7110        74.8670       106.0660
      497.0000       -34.6910        10.3010         7.5560        78.4280       107.9320
      497.5000       -34.5850        10.0100         7.4260        81.5740       109.9760
      498.0000       -34.4880         9.7330         7.3440        88.3640       111.5640
      498.5000       -34.3850         9.4610         7.3270        92.5850       110.2880
      499.0000       -34.2880         9.2130         7.4300        96.4090       109.2460
      499.5000       -34.1910         9.1010         7.6020        97.3810       107.0140
      500.0000       -34.2560         9.0500         7.7450        96.7420       104.3610
      500.5000       -34.3990         9.0660         7.9010        95.0500        99.8110
      501.0000       -34.5270         9.2430         8.0500        90.2160       100.0470
      501.5000       -34.6640         9.4180         8.2030        85.8660       100.8780
      502.0000       -34.7960         9.5990         8.3520        78.7080       101.7100
      502.5000       -34.9360         9.7710         8.5000        73.1800       102.5410
      503.0000       -34.8530         9.8150         8.5050        77.3630       103.3720
      503.5000       -34.6580         9.6250         8.4650        79.4250       104.2930
      504.0000       -34.5670         9.2150         8.3810        84.1080       107.1930
      504.5000       -34.6220         8.9660         8.2080        87.0660       112.2610
      505.0000       -34.6620         9.0590         8.0390        84.0930       110.9660
      505.5000       -34.7080         9.2200         7.8710        82.0410       110.4680
      506.0000       -34.7520         9.2130         7.6760        85.3870       109.6710
      506.5000       -34.6550         9.0060         7.4200        90.3230       109.2730
      507.0000       -34.5050         8.6900         7.1640        94.7660       109.7710
      507.5000       -34.3650         8.3980         6.9070        95.2190       110.9660
      508.0000       -34.2210         8.0910         6.6510        94.9440       113.7550
      508.5000       -34.0770         7.7960         6.3940        95.9050       116.9420
      509.0000       -33.9360         7.5000         6.1380        95.2320       122.4200
      509.5000       -33.7870         7.4850         5.8870        93.8560       129.7910
      510.0000       -33.9300         7.6050         5.7660        91.0150       130.0900
