~Version Information
 VERS  .     3.00 : LOG ASCII STANDARD -VERSION 3.0
 WRAP  .     NO   : ONE LINE PER DEPTH STEP
 DLM   .    SPACE : DELIMITING CHARACTER BETWEEN DATA COLUMNS
~WELL INFORMATION
#MNEM  .UNIT        DATA TYPE                  INFORMATION
#------.------ ----------------------------- : -------------------------
 STRT  .F          466.0000                  : START DEPTH
 STOP  .F         3750.0000                  : STOP DEPTH
 STEP  .F            0.5000                  : STEP LENGTH
 NULL  .          -999.2500                  : NO VALUE
 COMP  .      BAILEY-SLBURN OIL & GAS LTD.   : COMPANY
 WELL  .      BAYSEL RETLAW 6-8-13-18        : WELL
 FLD   .      RETLAW                         : FIELD
 LOC   .      06-08-013-18W4                 : LOCATION
 PROV  .      ALBERTA                        : PROVINCE
 SRVC  .      SCHLUMBERGER                   : SERVICE COMPANY
 DATE  .      OCT-19-1964                    : LOGDATE
 UWI   .      100060801318W400               : UNIQUE WELL ID
 LIC   .      0026947                        : LICENSE NO.
~CURVE INFORMATION
#MNEM  .UNIT        API CODE                   CURVE DESCRIPTION
#------.------ ----------------------------- : -------------------------
 DEPT  .F                                    : 
 SP    .mv       07 010 01 00                : Spontaneous Potential
 SN    .ohmm     05 040 16 00                : Short Normal 16"
 LN    .ohmm     05 060 64 00                : Long Normal 64"
 GR    .gapi     60 310 00 00                : Gamma Ray
 DT    .us/f     60 520 00 00                : Delta t
~PARAMETER INFORMATION
#MNEM  .UNIT        VALUE                      DESCRIPTION
#------.------ ----------------------------- : -------------------------
 EKB   .F           2699.0000                : Kelly bushing
 EGL   .F           2686.0000                : Ground level
 EDF   .F           0.0000                   : Drilling floor
 EPD   .F           2686.0000                : Permanent datum
 TD    .F           3750.0000                : Total depth
 DATE  .mm/dd/yyyy  OCT-19-1964              : Date Logged
 DD    .ft          3750                     : Depth Driller
 DL    .ft          3761                     : Depth Logger
 BLI   .ft          3750                     : Bottom Log Interval
 TLI   .ft          466                      : Top Log Interval
 CTD1  .ft          466                      : Casing Driller 1
 CTL1  .ft          466                      : Casing Logger 1
 BS    .inch        7 7/8                    : Bit Size
 DFT   .            POLY PLASTIC             : Type Fluid In Hole
 DFD   .lb/gal      10.9                     : Mud Weight
 DFV   .sec         74                       : Viscosity
 DFPH  .            9.5                      : pH
 DFL   .gal         3.2                      : Fluid Loss
 RM    .ohmm        1.51                     : Rm
 EMT   .F           67                       : Rm Meas. Temp.
 RMF   .ohmm        1.05                     : Rmf
 MFT   .F           80                       : Rmf Meas. Temp.
 RMC   .ohmm        3.0                      : Rmc
 MCST  .F           78                       : Rmc Meas. Temp.
 RMB   .ohmm        1.18                     : Rm. At BHT
 BHT   .F           86                       : BHT.
~TOPS_Definition
 TOPN.        :  Top Name     {S} 
 TOPT.F       :  Top Depth    {F} 
~TOPS_Data | TOPS_Definition
 Kpakowki             865.2  
 Kmilk_rv             1029.9  
 Kcolorado            1423.9  
 Kmed_hat             1583.0  
 K2nd_ws              2319.9  
 K2WS_SS_CW           2371.4  
 KBFS_CW              2584.0  
 Kbfs                 2584.0  
 Kbow_isl             2659.4  
 Kbi_ss               2685.4  
 Kbsl_colo            3085.0  
 Kmannvl              3101.4  
 Kmannvl_CW           3101.7  
 Kmannvl_UBeow CLNY MKR 3181.4  
 KMNVL_MID MKR - BROWN PICK_CW  3260.8  
 MNVL Teal Marker     3327.4  
 Kmann_GP CH Llithic_TOP(Green) 3378.9  
 Kmann_GP CH Lithic_Base 3446.5  
 KmannUmkr            3448.2  
 Kglauc_ss            3494.4  
 KGLAUC_SS_CW         3496.1  
 KglaucCHSS           3516.7  
 Kglauc CHSS Base     3597.8  
 Kostracod            3600.1  
 Ksunburst            3602.7  
 KSunburst CH Sand    3628.0  
 MLivingstn_CW        3735.9  
 Mlivngstn            3737.9  
~Ascii       DEPTH           SP           SN           LN           GR           DT
# ...
     3047.0000       -30.8930         7.7010         5.7070       104.0970        91.0420
     3047.5000       -30.9170         7.5890         5.5910       102.5050        92.0590
     3048.0000       -30.8690         7.4750         5.4790       104.2990        93.7580
     3048.5000       -31.2240         7.3600         5.3560       107.8860        94.6240
     3049.0000       -31.4800         7.2280         5.2530       107.0170        93.5580
     3049.5000       -31.2110         7.0140         5.1970       107.0330        92.1680
     3050.0000       -30.9530         6.8530         5.2030       108.8010        90.7770
     3050.5000       -30.6940         6.9000         5.2340       106.6420        89.3870
     3051.0000       -30.4100         7.0190         5.2640       102.0110        88.4780
     3051.5000       -30.3620         7.1620         5.3170       108.9960        88.0650
     3052.0000       -30.5670         7.2960         5.4000       106.5540        88.0650
     3052.5000       -30.6810         7.4430         5.4720       101.0250        89.7520
     3053.0000       -30.7290         7.5060         5.5600        99.3320        89.3480
     3053.5000       -30.9440         7.5310         5.6070        96.1970        88.7540
     3054.0000       -31.1740         7.4830         5.6030        97.3170        88.1600
     3054.5000       -31.3770         7.4350         5.6030        98.8730        87.3710
     3055.0000       -31.6280         7.3820         5.6080       100.7530        87.5690
     3055.5000       -31.5570         7.3340         5.5540       101.7890        87.9660
     3056.0000       -31.2110         7.2780         5.3960        99.3030        89.9970
     3056.5000       -30.9230         7.2390         5.1820        94.5730        93.3890
     3057.0000       -30.6010         7.0970         4.9600        98.9300        97.3910
     3057.5000       -30.3410         6.8490         4.7380       104.4580        96.4220
     3058.0000       -30.5190         6.6730         4.5250       105.6860        95.1850
     3058.5000       -30.6960         6.3410         4.3960        99.1230        93.3230
     3059.0000       -30.6950         6.1870         4.2750        97.0900        93.8530
     3059.5000       -30.6740         6.1070         4.1550        99.8100        95.4550
     3060.0000       -30.6500         6.0030         4.0290       102.4830        93.1250
     3060.5000       -30.6290         5.8980         3.9330       100.8790        94.2570
     3061.0000       -30.6070         5.8080         3.9610        96.5150        95.4110
     3061.5000       -30.5850         5.7850         3.9970        97.6880        96.5650
     3062.0000       -30.5630         5.7720         4.0290       101.7180        97.5890
     3062.5000       -30.5410         5.7480         4.0680       106.0870        96.7530
     3063.0000       -30.5170         5.7240         4.0460       108.4890        96.0000
     3063.5000       -30.5430         5.6870         3.9860       104.4650        95.6050
     3064.0000       -31.1430         5.7210         3.9340       105.1230        96.3800
     3064.5000       -31.6640         5.7690         3.9190       105.3570        97.3200
     3065.0000       -31.8730         5.7600         3.9420       102.6370        97.8390
     3065.5000       -31.9090         5.7660         3.9580       103.4260        98.0850
     3066.0000       -31.8970         5.7610         3.9810       108.2100        98.8550
     3066.5000       -31.8800         5.7660         3.9880       109.8620        99.7340
     3067.0000       -31.4850         5.7490         3.9230       108.8290       100.6130
     3067.5000       -31.2960         5.7340         3.8530       108.1830       101.7560
     3068.0000       -31.5210         5.6670         3.7990       106.1490       101.2600
     3068.5000       -31.7590         5.5620         3.7940       102.8810       102.2380
     3069.0000       -31.9940         5.5010         3.8020        97.5410       103.8390
     3069.5000       -32.2440         5.4670         3.8690       100.1750       102.2000
     3070.0000       -32.2020         5.4200         3.8740       105.8320       100.1490
     3070.5000       -32.0010         5.4140         3.8330       105.2920        99.7720
     3071.0000       -31.8480         5.4280         3.7870       107.7890       101.5450
     3071.5000       -31.6500         5.3190         3.7420       105.8290       103.8390
     3072.0000       -31.0180         5.2060         3.6960       107.0540       102.9620
     3072.5000       -30.6510         5.1300         3.6500       112.9830       101.8550
     3073.0000       -30.8840         5.1690         3.6000       114.8170       103.2170
     3073.5000       -31.1700         5.2470         3.5930       111.5120       104.8740
     3074.0000       -31.4550         5.2450         3.6010       109.4860       106.3190
     3074.5000       -31.7250         5.1460         3.6100       107.4260        99.1770
     3075.0000       -32.0640         5.1290         3.6190       102.0330       101.5080
     3075.5000       -32.3150         5.1510         3.6280       100.6500       103.8390
     3076.0000       -32.1930         5.1700         3.6370       104.4440       103.0600
     3076.5000       -32.0610         5.1890         3.6460       105.7670       102.3060
     3077.0000       -31.9430         5.2240         3.6550       107.0210       101.5520
     3077.5000       -31.7740         5.2810         3.6640       110.9390       101.1630
     3078.0000       -31.8000         5.3360         3.6730       107.5770       102.0030
     3078.5000       -32.1410         5.3950         3.6670       120.2120       102.6490
     3079.0000       -32.1350         5.4030         3.6560       119.5480       101.5760
     3079.5000       -32.1860         5.3990         3.6470       115.0220       101.0620
     3080.0000       -32.2130         5.4180         3.6360       113.4830       101.8080
     3080.5000       -32.2410         5.4580         3.6270       115.1970       102.6490
     3081.0000       -32.2930         5.4960         3.6150       115.2520       102.0860
     3081.5000       -32.2320         5.5340         3.6080       114.5590       101.5090
     3082.0000       -32.0310         5.5740         3.5910       110.0300       100.8630
     3082.5000       -31.5720         5.6220         3.6190       105.6200       102.4050
     3083.0000       -30.9120         5.6820         3.6500       108.3260       104.9310
     3083.5000       -31.1080         5.7620         3.7730       107.2980       101.2030
     3084.0000       -30.7300         5.8680         3.9500       105.4260        96.3020
     3084.5000       -30.2420         6.1560         4.1320       111.2180        92.6180
     3085.0000       -30.2830         6.5390         4.6140       114.0440        89.9010
     3085.5000       -30.6760         7.4520         5.1640       105.6470        88.2980
     3086.0000       -31.3220         8.4680         5.9840        95.1930        85.6850
     3086.5000       -31.3910         9.7950         7.1730        85.0150        86.3790
     3087.0000       -34.2270        11.7230         8.4960        76.9940        88.2600
     3087.5000       -38.1330        13.6780         9.6300        78.7660        91.1410
     3088.0000       -41.7730        15.7600        12.1860        81.9310        90.4210
     3088.5000       -46.0360        17.4240        14.4350        80.0540        89.0580
     3089.0000       -48.8410        17.7540        16.0380        81.1290        89.9080
     3089.5000       -49.3920        17.9530        16.7630        84.0560        90.8430
     3090.0000       -49.2070        17.8590        16.6430        85.0860        87.8670
     3090.5000       -48.8900        17.8460        16.6100        84.3400        87.4700
     3091.0000       -48.7500        17.8930        16.5200        83.9800        87.1730
