~Version Information
 VERS  .     3.00 : LOG ASCII STANDARD -VERSION 3.0
 WRAP  .     NO   : ONE LINE PER DEPTH STEP
 DLM   .    SPACE : DELIMITING CHARACTER BETWEEN DATA COLUMNS
~WELL INFORMATION
#MNEM  .UNIT        DATA TYPE                  INFORMATION
#------.------ ----------------------------- : -------------------------
 STRT  .F          466.0000                  : START DEPTH
 STOP  .F         3750.0000                  : STOP DEPTH
 STEP  .F            0.5000                  : STEP LENGTH
 NULL  .          -999.2500                  : NO VALUE
 COMP  .      BAILEY-SLBURN OIL & GAS LTD.   : COMPANY
 WELL  .      BAYSEL RETLAW 6-8-13-18        : WELL
 FLD   .      RETLAW                         : FIELD
 LOC   .      06-08-013-18W4                 : LOCATION
 PROV  .      ALBERTA                        : PROVINCE
 SRVC  .      SCHLUMBERGER                   : SERVICE COMPANY
 DATE  .      OCT-19-1964                    : LOGDATE
 UWI   .      100060801318W400               : UNIQUE WELL ID
 LIC   .      0026947                        : LICENSE NO.
~CURVE INFORMATION
#MNEM  .UNIT        API CODE                   CURVE DESCRIPTION
#------.------ ----------------------------- : -------------------------
 DEPT  .F                                    : 
 SP    .mv       07 010 01 00                : Spontaneous Potential
 SN    .ohmm     05 040 16 00                : Short Normal 16"
 LN    .ohmm     05 060 64 00                : Long Normal 64"
 GR    .gapi     60 310 00 00                : Gamma Ray
 DT    .us/f     60 520 00 00                : Delta t
~PARAMETER INFORMATION
#MNEM  .UNIT        VALUE                      DESCRIPTION
#------.------ ----------------------------- : -------------------------
 EKB   .F           2699.0000                : Kelly bushing
 EGL   .F           2686.0000                : Ground level
 EDF   .F           0.0000                   : Drilling floor
 EPD   .F           2686.0000                : Permanent datum
 TD    .F           3750.0000                : Total depth
 DATE  .mm/dd/yyyy  OCT-19-1964              : Date Logged
 DD    .ft          3750                     : Depth Driller
 DL    .ft          3761                     : Depth Logger
 BLI   .ft          3750                     : Bottom Log Interval
 TLI   .ft          466                      : Top Log Interval
 CTD1  .ft          466                      : Casing Driller 1
 CTL1  .ft          466                      : Casing Logger 1
 BS    .inch        7 7/8                    : Bit Size
 DFT   .            POLY PLASTIC             : Type Fluid In Hole
 DFD   .lb/gal      10.9                     : Mud Weight
 DFV   .sec         74                       : Viscosity
 DFPH  .            9.5                      : pH
 DFL   .gal         3.2                      : Fluid Loss
 RM    .ohmm        1.51                     : Rm
 EMT   .F           67                       : Rm Meas. Temp.
 RMF   .ohmm        1.05                     : Rmf
 MFT   .F           80                       : Rmf Meas. Temp.
 RMC   .ohmm        3.0                      : Rmc
 MCST  .F           78                       : Rmc Meas. Temp.
 RMB   .ohmm        1.18                     : Rm. At BHT
 BHT   .F           86                       : BHT.
~TOPS_Definition
 TOPN.        :  Top Name     {S} 
 TOPT.F       :  Top Depth    {F} 
~TOPS_Data | TOPS_Definition
 Kpakowki             865.2  
 Kmilk_rv             1029.9  
 Kcolorado            1423.9  
 Kmed_hat             1583.0  
 K2nd_ws              2319.9  
 K2WS_SS_CW           2371.4  
 KBFS_CW              2584.0  
 Kbfs                 2584.0  
 Kbow_isl             2659.4  
 Kbi_ss               2685.4  
 Kbsl_colo            3085.0  
 Kmannvl              3101.4  
 Kmannvl_CW           3101.7  
 Kmannvl_UBeow CLNY MKR 3181.4  
 KMNVL_MID MKR - BROWN PICK_CW  3260.8  
 MNVL Teal Marker     3327.4  
 Kmann_GP CH Llithic_TOP(Green) 3378.9  
 Kmann_GP CH Lithic_Base 3446.5  
 KmannUmkr            3448.2  
 Kglauc_ss            3494.4  
 KGLAUC_SS_CW         3496.1  
 KglaucCHSS           3516.7  
 Kglauc CHSS Base     3597.8  
 Kostracod            3600.1  
 Ksunburst            3602.7  
 KSunburst CH Sand    3628.0  
 MLivingstn_CW        3735.9  
 Mlivngstn            3737.9  
~Ascii       DEPTH           SP           SN           LN           GR           DT
# ...
     3492.0000       -47.4830        12.5830         8.4820       121.4180        95.8040
     3492.5000       -47.7370        12.4240         8.5550       121.9300        93.3480
     3493.0000       -47.6620        12.2920         9.0420       129.7610        91.2610
     3493.5000       -47.9640        12.0580         9.5680       138.3160        89.2560
     3494.0000       -48.2590        12.1750        10.1160       133.9440        84.5720
     3494.5000       -47.9480        12.9900        10.9410       122.4290        79.5340
     3495.0000       -48.0320        14.0740        11.7550       112.6540        82.7080
     3495.5000       -48.2780        14.8910        12.5780       112.2680        76.8550
     3496.0000       -47.9270        15.3740        13.4120       108.9400        77.6770
     3496.5000       -47.1720        15.7950        14.2360       111.2510        80.7240
     3497.0000       -46.5460        16.2360        15.0300       116.7750        80.0610
     3497.5000       -46.1510        16.6300        15.9550       118.8250        79.0770
     3498.0000       -46.1000        17.3930        16.2270       115.2380        77.9110
     3498.5000       -46.0930        18.2570        16.4060       113.1000        76.7450
     3499.0000       -46.1380        18.7350        15.8120       107.7360        75.5790
     3499.5000       -46.2570        18.7910        15.1100       106.4440        74.2760
     3500.0000       -46.3940        18.5740        14.3860       106.5720        76.3590
     3500.5000       -46.4710        18.0950        13.7240       107.9860        78.7200
     3501.0000       -46.3760        17.0910        12.9840       109.8080        81.2200
     3501.5000       -46.2020        16.1070        12.1840       108.6870        86.6770
     3502.0000       -46.2260        15.3770        11.3670       102.3980        85.9330
     3502.5000       -46.3210        14.7900        10.8070       100.7380        83.9350
     3503.0000       -45.7820        14.4290        10.1940       101.9240        81.9380
     3503.5000       -45.9300        14.1600        10.0120        99.4750        79.9410
     3504.0000       -47.0080        14.0530         9.7790        99.6880        77.4230
     3504.5000       -47.4750        13.9510         9.9690       102.3760        74.6210
     3505.0000       -47.2270        13.9150        10.0660       104.2710        72.2920
     3505.5000       -47.0660        14.4950        10.2370       104.4510        73.0220
     3506.0000       -46.8680        15.0680        11.2110       103.4920        74.0570
     3506.5000       -46.6760        15.7140        12.0920       105.1850        75.0920
     3507.0000       -46.5570        16.4780        12.9950       110.1880        76.7560
     3507.5000       -46.9730        17.4970        13.8450       106.5040        76.4090
     3508.0000       -47.7980        18.4660        13.7380        99.5060        75.3670
     3508.5000       -49.3580        19.5790        13.5650        92.6520        76.2520
     3509.0000       -51.7480        20.1140        13.4060        91.6950        77.0540
     3509.5000       -52.9060        19.9710        13.5290        93.6730        75.5580
     3510.0000       -52.9280        19.0880        13.8510        99.7320        74.1460
     3510.5000       -52.2230        17.9930        13.9940       107.4090        72.7330
     3511.0000       -50.4420        17.8450        13.8170       111.6310        71.3210
     3511.5000       -49.2540        17.8020        13.1300       109.2790        70.4070
     3512.0000       -48.0600        17.8470        12.3960       111.8520        70.4070
     3512.5000       -47.2500        18.4540        11.6360       112.3190        72.0600
     3513.0000       -46.8410        18.3230        10.2000       110.6370        73.8790
     3513.5000       -46.3130        17.5060         8.7800       109.6980        76.2860
     3514.0000       -46.0770        16.1810         8.0440       108.3480        78.6470
     3514.5000       -46.1000        13.7890         7.8860       111.3840        80.8230
     3515.0000       -46.1110        11.6360         7.7370       118.8980        81.9570
     3515.5000       -46.4370        10.4270         7.5660       121.1050        83.2410
     3516.0000       -46.5900        11.1870         7.4730       111.8050        84.5930
     3516.5000       -45.8870        12.3910         7.4200       108.9730        82.4110
     3517.0000       -45.4450        13.6400         8.0640       103.7800        79.1370
     3517.5000       -44.9750        14.3920         9.5070       109.2590        80.6250
     3518.0000       -45.3220        15.0790        10.9220       108.0000        81.6170
     3518.5000       -47.6770        15.6830        12.3280        98.4880        80.6500
     3519.0000       -50.2680        17.0420        13.8440        81.8670        79.7010
     3519.5000       -52.9340        18.2540        14.6160        79.1160        78.6410
     3520.0000       -54.7110        19.4660        15.4530        76.6710        80.8730
     3520.5000       -54.7800        20.9810        16.2850        79.6390        82.4960
     3521.0000       -54.4630        22.7510        17.1160        84.3310        82.1130
     3521.5000       -55.8620        24.4510        17.9380        82.4580        84.0710
     3522.0000       -57.5880        26.5650        18.6430        78.1940        85.4860
     3522.5000       -58.6500        26.9760        19.8260        77.7760        85.1220
     3523.0000       -57.9190        27.4970        19.6910        78.4370        84.5930
     3523.5000       -56.9400        27.9200        19.7830        76.2020        86.2330
     3524.0000       -56.9080        28.3330        17.9920        73.9000        87.5830
     3524.5000       -58.6720        28.7160        16.4770        75.9500        88.6610
     3525.0000       -60.9960        28.7390        15.8580        74.7200        86.7820
     3525.5000       -62.9900        27.6520        16.0500        68.2890        83.9010
     3526.0000       -64.1840        25.4550        16.1210        66.7090        81.0190
     3526.5000       -62.8550        25.5370        16.2010        77.2750        78.1370
     3527.0000       -59.4610        25.5470        15.8750        98.9160        75.7640
     3527.5000       -56.5340        25.4330        15.3930       107.7140        72.7880
     3528.0000       -53.1420        28.0550        15.6180       104.0880        70.3080
     3528.5000       -51.7840        30.0870        17.5990       103.0810        69.6480
     3529.0000       -50.9230        32.1310        18.9660       104.9470        68.9680
     3529.5000       -51.1090        33.8570        22.5210       101.1170        68.2870
     3530.0000       -51.1630        34.4170        24.3970        92.1540        67.6070
     3530.5000       -51.2190        34.3670        24.1910        91.0790        66.9260
     3531.0000       -51.2480        34.3480        22.7570        90.8730        66.3390
     3531.5000       -51.4940        34.0040        21.3680        88.0840        66.6370
     3532.0000       -52.2880        32.7710        19.8430        88.4780        67.9810
     3532.5000       -53.2120        31.4120        18.6020        88.9700        69.1430
     3533.0000       -53.5980        29.4320        17.9630        89.7410        70.3050
     3533.5000       -53.7360        28.4220        17.3340        89.4600        71.4660
     3534.0000       -54.2210        27.2170        17.0540        86.4880        72.7880
     3534.5000       -54.6910        26.9680        16.9380        85.4190        72.7880
     3535.0000       -55.1020        26.6860        16.9490        85.4420        71.9430
     3535.5000       -55.2720        27.4120        16.8640        85.3380        70.7120
     3536.0000       -55.4420        28.5390        16.6390        85.5590        69.4800
