~Version Information
 VERS  .     3.00 : LOG ASCII STANDARD -VERSION 3.0
 WRAP  .     NO   : ONE LINE PER DEPTH STEP
 DLM   .    SPACE : DELIMITING CHARACTER BETWEEN DATA COLUMNS
~WELL INFORMATION
#MNEM  .UNIT        DATA TYPE                  INFORMATION
#------.------ ----------------------------- : -------------------------
 STRT  .F          466.0000                  : START DEPTH
 STOP  .F         3750.0000                  : STOP DEPTH
 STEP  .F            0.5000                  : STEP LENGTH
 NULL  .          -999.2500                  : NO VALUE
 COMP  .      BAILEY-SLBURN OIL & GAS LTD.   : COMPANY
 WELL  .      BAYSEL RETLAW 6-8-13-18        : WELL
 FLD   .      RETLAW                         : FIELD
 LOC   .      06-08-013-18W4                 : LOCATION
 PROV  .      ALBERTA                        : PROVINCE
 SRVC  .      SCHLUMBERGER                   : SERVICE COMPANY
 DATE  .      OCT-19-1964                    : LOGDATE
 UWI   .      100060801318W400               : UNIQUE WELL ID
 LIC   .      0026947                        : LICENSE NO.
~CURVE INFORMATION
#MNEM  .UNIT        API CODE                   CURVE DESCRIPTION
#------.------ ----------------------------- : -------------------------
 DEPT  .F                                    : 
 SP    .mv       07 010 01 00                : Spontaneous Potential
 SN    .ohmm     05 040 16 00                : Short Normal 16"
 LN    .ohmm     05 060 64 00                : Long Normal 64"
 GR    .gapi     60 310 00 00                : Gamma Ray
 DT    .us/f     60 520 00 00                : Delta t
~PARAMETER INFORMATION
#MNEM  .UNIT        VALUE                      DESCRIPTION
#------.------ ----------------------------- : -------------------------
 EKB   .F           2699.0000                : Kelly bushing
 EGL   .F           2686.0000                : Ground level
 EDF   .F           0.0000                   : Drilling floor
 EPD   .F           2686.0000                : Permanent datum
 TD    .F           3750.0000                : Total depth
 DATE  .mm/dd/yyyy  OCT-19-1964              : Date Logged
 DD    .ft          3750                     : Depth Driller
 DL    .ft          3761                     : Depth Logger
 BLI   .ft          3750                     : Bottom Log Interval
 TLI   .ft          466                      : Top Log Interval
 CTD1  .ft          466                      : Casing Driller 1
 CTL1  .ft          466                      : Casing Logger 1
 BS    .inch        7 7/8                    : Bit Size
 DFT   .            POLY PLASTIC             : Type Fluid In Hole
 DFD   .lb/gal      10.9                     : Mud Weight
 DFV   .sec         74                       : Viscosity
 DFPH  .            9.5                      : pH
 DFL   .gal         3.2                      : Fluid Loss
 RM    .ohmm        1.51                     : Rm
 EMT   .F           67                       : Rm Meas. Temp.
 RMF   .ohmm        1.05                     : Rmf
 MFT   .F           80                       : Rmf Meas. Temp.
 RMC   .ohmm        3.0                      : Rmc
 MCST  .F           78                       : Rmc Meas. Temp.
 RMB   .ohmm        1.18                     : Rm. At BHT
 BHT   .F           86                       : BHT.
~TOPS_Definition
 TOPN.        :  Top Name     {S} 
 TOPT.F       :  Top Depth    {F} 
~TOPS_Data | TOPS_Definition
 Kpakowki             865.2  
 Kmilk_rv             1029.9  
 Kcolorado            1423.9  
 Kmed_hat             1583.0  
 K2nd_ws              2319.9  
 K2WS_SS_CW           2371.4  
 KBFS_CW              2584.0  
 Kbfs                 2584.0  
 Kbow_isl             2659.4  
 Kbi_ss               2685.4  
 Kbsl_colo            3085.0  
 Kmannvl              3101.4  
 Kmannvl_CW           3101.7  
 Kmannvl_UBeow CLNY MKR 3181.4  
 KMNVL_MID MKR - BROWN PICK_CW  3260.8  
 MNVL Teal Marker     3327.4  
 Kmann_GP CH Llithic_TOP(Green) 3378.9  
 Kmann_GP CH Lithic_Base 3446.5  
 KmannUmkr            3448.2  
 Kglauc_ss            3494.4  
 KGLAUC_SS_CW         3496.1  
 KglaucCHSS           3516.7  
 Kglauc CHSS Base     3597.8  
 Kostracod            3600.1  
 Ksunburst            3602.7  
 KSunburst CH Sand    3628.0  
 MLivingstn_CW        3735.9  
 Mlivngstn            3737.9  
~Ascii       DEPTH           SP           SN           LN           GR           DT
# ...
     3269.5000       -30.6480        12.0680        10.8070        95.0510        77.3590
     3270.0000       -30.7720        12.3020        11.2430        96.3030        75.6890
     3270.5000       -30.8960        12.4900        11.6840       100.4600        74.8710
     3271.0000       -31.0150        12.9780        12.1910        99.0150        74.7490
     3271.5000       -31.2420        13.6380        12.5620        88.0120        74.2030
     3272.0000       -31.6490        14.1360        12.6270        84.2410        73.3460
     3272.5000       -32.0440        14.6270        12.6320        83.6440        72.4900
     3273.0000       -32.6450        15.0250        12.5900        87.6360        73.3380
     3273.5000       -33.5200        15.0710        12.4720        91.3210        75.3980
     3274.0000       -34.4240        14.5920        11.8940        92.1740        77.4580
     3274.5000       -35.2190        13.9990        11.1050        95.1860        78.6420
     3275.0000       -35.0980        13.4170        10.3500        98.1840        79.3880
     3275.5000       -34.8540        12.7700         9.5810       100.9450        80.1330
     3276.0000       -34.6410        12.3280         8.8170       103.1320        80.7440
     3276.5000       -34.2960        11.8340         8.0540       105.0990        80.5420
     3277.0000       -33.5290        11.3900         7.2940       110.4750        80.1290
     3277.5000       -32.6400        10.7950         6.7940       112.9180        86.3790
     3278.0000       -32.0960        10.1010         6.8010       114.3380        85.8830
     3278.5000       -31.7900         9.4420         7.0120       111.7560        84.0050
     3279.0000       -31.8610         8.5800         7.1830       107.4710        82.4610
     3279.5000       -32.3010         8.7690         7.4010       107.3440        80.9160
     3280.0000       -32.7280         9.3220         7.4890       102.6450        79.8810
     3280.5000       -32.9910         9.9680         7.6610       100.0850        75.0400
     3281.0000       -32.3300        10.9380         8.0310       101.1930        71.6960
     3281.5000       -31.9610        11.9240         8.5870        99.6210        75.3600
     3282.0000       -31.7350        12.2160         9.0900        95.7610        81.8540
     3282.5000       -31.7660        12.0370         9.2150        91.9680        87.0730
     3283.0000       -31.8950        11.4750         9.2420        88.0900        85.8830
     3283.5000       -31.6730        10.9720         9.1140        86.0590        87.2720
     3284.0000       -31.5670        10.5720         8.7880        85.4120        85.4630
     3284.5000       -31.8280        10.2980         8.4410        84.4290        82.6670
     3285.0000       -31.8090        10.1880         8.2550        85.0000        79.8710
     3285.5000       -31.4870        10.1220         8.4990        86.6570        76.8550
     3286.0000       -31.1650        10.1890         8.6950        88.6200        78.4540
     3286.5000       -30.8160        10.5560         8.9190        87.6600        80.1880
     3287.0000       -30.4460        10.9230         9.1080        85.6060        82.1130
     3287.5000       -30.0770        11.0470         9.0260        86.3530        81.3190
     3288.0000       -29.7350        11.1080         8.8970        85.7130        81.7500
     3288.5000       -29.7660        11.0540         8.7750        82.5120        82.7960
     3289.0000       -29.8490        11.0040         8.6560        81.0170        84.3950
     3289.5000       -29.9560        10.9100         8.5210        80.7080        83.9190
     3290.0000       -30.0860        10.7460         8.4380        83.3760        82.4110
     3290.5000       -30.2540        10.7140         8.4160        88.0110        84.8910
     3291.0000       -30.3510        10.7610         8.4120        91.9590        83.6990
     3291.5000       -30.6060        10.7500         8.4170        96.1220        82.4060
     3292.0000       -30.6970        10.5980         8.6690       100.3330        81.1130
     3292.5000       -31.2040        10.5970         8.9660       103.3860        80.3270
     3293.0000       -31.5550        10.8390         9.1850       102.9380        80.9230
     3293.5000       -31.7000        11.1270         9.4340       101.5210        76.1610
     3294.0000       -32.0280        11.5260         9.6700        97.9950        76.4350
     3294.5000       -32.9460        11.9950         9.9120        96.0370        77.5100
     3295.0000       -33.8610        12.4660        10.1500        95.4190        77.8470
     3295.5000       -34.3760        12.6970        10.3910        97.1830        77.8470
     3296.0000       -33.9980        12.6480        10.6410       103.7880        77.2640
     3296.5000       -33.3550        12.7750        10.7480       108.9290        76.3590
     3297.0000       -32.5550        12.9660        10.6360       106.9720        79.4350
     3297.5000       -32.3220        12.9730        10.3070       103.1190        79.1620
     3298.0000       -32.4730        12.9110        10.1330       100.7940        78.6410
     3298.5000       -32.5180        12.7630        10.1990       102.7380        79.1450
     3299.0000       -32.6700        12.7230        10.2670       105.0140        79.6230
     3299.5000       -32.4850        12.6710        10.5220       102.3950        80.1000
     3300.0000       -31.9520        12.8410        10.8320        99.6080        80.6250
     3300.5000       -32.3230        13.2990        11.1140        99.0140        77.2280
     3301.0000       -33.0450        13.9640        11.1450        97.0070        75.4660
     3301.5000       -33.9990        14.7140        11.1800        93.9370        75.5650
     3302.0000       -34.6400        15.2420        11.2850        92.3960        76.0370
     3302.5000       -34.8440        15.3190        11.7580        95.0280        76.4580
     3303.0000       -35.1260        15.3270        12.3640       100.6380        76.4580
     3303.5000       -34.8320        15.3230        12.9140       104.5480        76.0750
     3304.0000       -34.1620        15.4060        13.0760        95.8630        75.3320
     3304.5000       -34.1420        15.6810        12.7560        90.5290        74.5880
     3305.0000       -34.9740        16.0280        12.1820        94.9170        74.2360
     3305.5000       -36.2590        16.0370        11.6090        91.1350        74.7720
     3306.0000       -37.0240        15.9690        11.4660        88.9820        76.5480
     3306.5000       -37.1980        15.4420        11.4390        93.9700        78.4310
     3307.0000       -36.0780        14.5940        11.1630        97.7910        80.2280
     3307.5000       -34.0120        13.6110        10.8480       102.0670        80.7240
     3308.0000       -32.5160        13.1090        10.4160        99.9740        80.4880
     3308.5000       -31.6910        12.9110        10.0430        97.2450        80.3360
     3309.0000       -32.4300        13.0740         9.9850        98.1310        80.2280
     3309.5000       -33.8460        13.3240        10.1320        99.3570        80.2280
     3310.0000       -35.5580        13.5250        10.4100       101.3140        80.1710
     3310.5000       -36.8790        13.7040        10.6740        99.6630        80.0620
     3311.0000       -38.1640        13.9830        10.9480        94.9200        79.9310
     3311.5000       -39.3820        14.2780        11.2100        92.5940        79.3200
     3312.0000       -40.2320        14.7000        11.5040        90.7490        78.5450
     3312.5000       -41.1290        15.2650        12.1110        87.6940        77.7710
     3313.0000       -42.0020        15.7360        12.6690        84.0440        76.9960
     3313.5000       -42.8680        16.3430        13.2930        84.8450        76.2220
