~Version Information
 VERS  .     3.00 : LOG ASCII STANDARD -VERSION 3.0
 WRAP  .     NO   : ONE LINE PER DEPTH STEP
 DLM   .    SPACE : DELIMITING CHARACTER BETWEEN DATA COLUMNS
~WELL INFORMATION
#MNEM  .UNIT        DATA TYPE                  INFORMATION
#------.------ ----------------------------- : -------------------------
 STRT  .F          466.0000                  : START DEPTH
 STOP  .F         3750.0000                  : STOP DEPTH
 STEP  .F            0.5000                  : STEP LENGTH
 NULL  .          -999.2500                  : NO VALUE
 COMP  .      BAILEY-SLBURN OIL & GAS LTD.   : COMPANY
 WELL  .      BAYSEL RETLAW 6-8-13-18        : WELL
 FLD   .      RETLAW                         : FIELD
 LOC   .      06-08-013-18W4                 : LOCATION
 PROV  .      ALBERTA                        : PROVINCE
 SRVC  .      SCHLUMBERGER                   : SERVICE COMPANY
 DATE  .      OCT-19-1964                    : LOGDATE
 UWI   .      100060801318W400               : UNIQUE WELL ID
 LIC   .      0026947                        : LICENSE NO.
~CURVE INFORMATION
#MNEM  .UNIT        API CODE                   CURVE DESCRIPTION
#------.------ ----------------------------- : -------------------------
 DEPT  .F                                    : 
 SP    .mv       07 010 01 00                : Spontaneous Potential
 SN    .ohmm     05 040 16 00                : Short Normal 16"
 LN    .ohmm     05 060 64 00                : Long Normal 64"
 GR    .gapi     60 310 00 00                : Gamma Ray
 DT    .us/f     60 520 00 00                : Delta t
~PARAMETER INFORMATION
#MNEM  .UNIT        VALUE                      DESCRIPTION
#------.------ ----------------------------- : -------------------------
 EKB   .F           2699.0000                : Kelly bushing
 EGL   .F           2686.0000                : Ground level
 EDF   .F           0.0000                   : Drilling floor
 EPD   .F           2686.0000                : Permanent datum
 TD    .F           3750.0000                : Total depth
 DATE  .mm/dd/yyyy  OCT-19-1964              : Date Logged
 DD    .ft          3750                     : Depth Driller
 DL    .ft          3761                     : Depth Logger
 BLI   .ft          3750                     : Bottom Log Interval
 TLI   .ft          466                      : Top Log Interval
 CTD1  .ft          466                      : Casing Driller 1
 CTL1  .ft          466                      : Casing Logger 1
 BS    .inch        7 7/8                    : Bit Size
 DFT   .            POLY PLASTIC             : Type Fluid In Hole
 DFD   .lb/gal      10.9                     : Mud Weight
 DFV   .sec         74                       : Viscosity
 DFPH  .            9.5                      : pH
 DFL   .gal         3.2                      : Fluid Loss
 RM    .ohmm        1.51                     : Rm
 EMT   .F           67                       : Rm Meas. Temp.
 RMF   .ohmm        1.05                     : Rmf
 MFT   .F           80                       : Rmf Meas. Temp.
 RMC   .ohmm        3.0                      : Rmc
 MCST  .F           78                       : Rmc Meas. Temp.
 RMB   .ohmm        1.18                     : Rm. At BHT
 BHT   .F           86                       : BHT.
~TOPS_Definition
 TOPN.        :  Top Name     {S} 
 TOPT.F       :  Top Depth    {F} 
~TOPS_Data | TOPS_Definition
 Kpakowki             865.2  
 Kmilk_rv             1029.9  
 Kcolorado            1423.9  
 Kmed_hat             1583.0  
 K2nd_ws              2319.9  
 K2WS_SS_CW           2371.4  
 KBFS_CW              2584.0  
 Kbfs                 2584.0  
 Kbow_isl             2659.4  
 Kbi_ss               2685.4  
 Kbsl_colo            3085.0  
 Kmannvl              3101.4  
 Kmannvl_CW           3101.7  
 Kmannvl_UBeow CLNY MKR 3181.4  
 KMNVL_MID MKR - BROWN PICK_CW  3260.8  
 MNVL Teal Marker     3327.4  
 Kmann_GP CH Llithic_TOP(Green) 3378.9  
 Kmann_GP CH Lithic_Base 3446.5  
 KmannUmkr            3448.2  
 Kglauc_ss            3494.4  
 KGLAUC_SS_CW         3496.1  
 KglaucCHSS           3516.7  
 Kglauc CHSS Base     3597.8  
 Kostracod            3600.1  
 Ksunburst            3602.7  
 KSunburst CH Sand    3628.0  
 MLivingstn_CW        3735.9  
 Mlivngstn            3737.9  
~Ascii       DEPTH           SP           SN           LN           GR           DT
# ...
     2869.0000       -33.4280         8.9960         7.7370       113.2540        81.9460
     2869.5000       -33.1690         9.0930         7.9020       111.2430        81.5180
     2870.0000       -32.8390         9.1600         8.0960       108.1180        81.7160
     2870.5000       -32.5440         9.1950         8.1820       111.3180        81.9570
     2871.0000       -32.6700         9.3050         8.1740       106.8730        82.1680
     2871.5000       -32.8740         9.4450         8.1660       102.4780        82.5100
     2872.0000       -33.0670         9.3790         8.0570       103.5580        83.0670
     2872.5000       -33.2580         9.3060         7.9520       100.1610        83.7270
     2873.0000       -33.4680         9.2470         7.8480       116.1330        84.6920
     2873.5000       -33.2140         9.0120         7.7420       114.0740        83.6730
     2874.0000       -32.8100         8.8090         7.6160       107.9460        82.6570
     2874.5000       -32.4000         8.6650         7.2610       102.7970        82.3120
     2875.0000       -32.1420         8.5990         6.7900        99.8380        82.3120
     2875.5000       -32.3300         8.5150         6.1240        99.8540        82.3120
     2876.0000       -32.5290         8.2140         5.4280       102.9680        83.4500
     2876.5000       -32.1860         7.8550         4.7640       112.4310        99.8710
     2877.0000       -31.7050         7.1350         4.0150       120.6530        99.1810
     2877.5000       -31.6870         6.4120         3.8150       128.8860        97.9960
     2878.0000       -31.8750         5.6450         3.6310       139.1050        97.0930
     2878.5000       -32.3270         5.1270         3.4550       137.8400       104.8310
     2879.0000       -32.7520         4.9570         3.2690       137.2890        98.8750
     2879.5000       -33.1610         4.7560         3.1920       141.1400        87.4700
     2880.0000       -33.6520         4.9170         3.4190       149.3210        88.1730
     2880.5000       -33.8580         5.4000         3.6790       144.3900        90.2890
     2881.0000       -33.6330         5.8300         3.9410       131.4230        92.4310
     2881.5000       -33.4110         5.9350         4.1980       119.6840        89.3730
     2882.0000       -33.3720         6.2330         4.4860       107.8000        85.7840
     2882.5000       -33.6670         6.6200         4.9870       104.0580        90.9420
     2883.0000       -33.9430         6.9890         5.5260       103.9430        90.7440
     2883.5000       -34.1980         7.2930         6.0700       110.8880        89.1570
     2884.0000       -34.5480         7.8390         6.6090       108.4180        87.7680
     2884.5000       -35.0560         8.7910         7.1400        98.9380        78.2440
     2885.0000       -36.5110        10.0120         7.6080        89.3660        77.3510
     2885.5000       -39.1060        11.1510         8.0330        75.8450        78.4900
     2886.0000       -41.8840        12.4670         8.4600        76.5250        80.4200
     2886.5000       -41.2700        12.6330         8.7970        82.6770        83.7490
     2887.0000       -40.0580        12.3520         8.9180        87.6900        87.5690
     2887.5000       -39.6790        11.6990         8.9430        93.0690        87.6690
     2888.0000       -39.6800        10.9980         8.6440        98.3950        86.7590
     2888.5000       -38.0580        10.2480         8.2840       102.7620        85.4720
     2889.0000       -36.2370         9.8050         8.0170       103.0370        83.8990
     2889.5000       -35.8000         9.6980         7.9670       106.0920        84.1130
     2890.0000       -35.6260         9.5820         7.8490       107.8140        84.6670
     2890.5000       -35.4660         9.5390         7.7770       109.2010        85.3870
     2891.0000       -34.8220         9.4890         7.6700       109.1220        85.1880
     2891.5000       -34.4950         9.3700         7.6220       107.8900        84.8910
     2892.0000       -34.6400         9.0880         7.2960       106.2740        86.2810
     2892.5000       -34.7110         8.8440         6.7600       107.1060        87.8340
     2893.0000       -34.8300         8.5620         6.2750       108.5550        89.3880
     2893.5000       -34.8780         8.0840         5.7490       106.8240        91.5570
     2894.0000       -34.7260         7.5620         5.2630       112.6800        94.1810
     2894.5000       -34.5830         7.0450         4.7110       118.1320        96.8050
     2895.0000       -34.4220         6.5370         4.3580       116.6980        99.2760
     2895.5000       -34.2960         6.1000         4.2530       118.0170       100.2620
     2896.0000       -34.1050         5.6920         4.0990       115.0590       101.4580
     2896.5000       -34.0370         5.3350         3.9710       108.7660        99.5030
     2897.0000       -33.4240         5.1310         3.8260       104.9910        96.7680
     2897.5000       -32.8490         5.0280         3.6930       109.0890        94.5140
     2898.0000       -33.2160         5.0000         3.5750       118.1450        95.8000
     2898.5000       -33.2660         5.0190         3.4330       120.3040        96.8940
     2899.0000       -33.6090         5.0260         3.3410       114.0760        97.3910
     2899.5000       -33.7840         5.0320         3.3880       110.9800        99.8650
     2900.0000       -33.8300         4.8770         3.4340       118.4420       102.4500
     2900.5000       -33.8790         4.6690         3.4970       116.7690       100.6210
     2901.0000       -33.6510         4.4850         3.4540       113.0960        98.4820
     2901.5000       -33.4340         4.4760         3.3070       112.1090        99.4840
     2902.0000       -33.2040         4.5520         3.1770       110.0940       100.7640
     2902.5000       -33.0290         4.6260         3.0470       102.2170        98.9780
     2903.0000       -32.9300         4.7120         3.0250       102.9210        99.5280
     2903.5000       -33.1400         4.6720         3.0930       105.5840       100.5650
     2904.0000       -33.4220         4.5530         3.2400       107.4730        99.5030
     2904.5000       -33.6590         4.3940         3.3260       109.4180        96.9940
     2905.0000       -33.4880         4.3160         3.2370       103.3200        97.2920
     2905.5000       -33.2390         4.3810         3.0720       104.3220        93.5220
     2906.0000       -33.0090         4.5240         2.9310       106.6630       100.2920
     2906.5000       -32.7660         4.6710         2.7630       107.2620       105.5260
     2907.0000       -32.5370         4.6240         2.7520       108.2480       107.4110
     2907.5000       -32.2850         4.3240         2.8640       118.2000       105.6740
     2908.0000       -32.1350         4.1820         2.9520       123.6720       101.5460
     2908.5000       -32.3570         4.2310         3.0530       118.1730        97.4180
     2909.0000       -32.5830         4.1970         3.1520       111.1740        91.1380
     2909.5000       -32.7970         4.4990         3.3620       104.0350        84.6920
     2910.0000       -33.0810         5.5190         3.6910        99.0070        82.3170
     2910.5000       -33.5960         6.5290         4.5870        97.7850        80.5260
     2911.0000       -33.3940         7.6390         5.7930       100.6450        82.4140
     2911.5000       -33.1330         8.1580         7.4070       105.0000        84.9900
     2912.0000       -32.8250         8.4550         8.3460       108.0340        84.6360
     2912.5000       -32.8720         8.7220         8.4810       105.3550        83.7910
     2913.0000       -33.4240         9.0020         8.7210       102.1970        82.5100
