~Version Information
 VERS  .     3.00 : LOG ASCII STANDARD -VERSION 3.0
 WRAP  .     NO   : ONE LINE PER DEPTH STEP
 DLM   .    SPACE : DELIMITING CHARACTER BETWEEN DATA COLUMNS
~WELL INFORMATION
#MNEM  .UNIT        DATA TYPE                  INFORMATION
#------.------ ----------------------------- : -------------------------
 STRT  .F          466.0000                  : START DEPTH
 STOP  .F         3750.0000                  : STOP DEPTH
 STEP  .F            0.5000                  : STEP LENGTH
 NULL  .          -999.2500                  : NO VALUE
 COMP  .      BAILEY-SLBURN OIL & GAS LTD.   : COMPANY
 WELL  .      BAYSEL RETLAW 6-8-13-18        : WELL
 FLD   .      RETLAW                         : FIELD
 LOC   .      06-08-013-18W4                 : LOCATION
 PROV  .      ALBERTA                        : PROVINCE
 SRVC  .      SCHLUMBERGER                   : SERVICE COMPANY
 DATE  .      OCT-19-1964                    : LOGDATE
 UWI   .      100060801318W400               : UNIQUE WELL ID
 LIC   .      0026947                        : LICENSE NO.
~CURVE INFORMATION
#MNEM  .UNIT        API CODE                   CURVE DESCRIPTION
#------.------ ----------------------------- : -------------------------
 DEPT  .F                                    : 
 SP    .mv       07 010 01 00                : Spontaneous Potential
 SN    .ohmm     05 040 16 00                : Short Normal 16"
 LN    .ohmm     05 060 64 00                : Long Normal 64"
 GR    .gapi     60 310 00 00                : Gamma Ray
 DT    .us/f     60 520 00 00                : Delta t
~PARAMETER INFORMATION
#MNEM  .UNIT        VALUE                      DESCRIPTION
#------.------ ----------------------------- : -------------------------
 EKB   .F           2699.0000                : Kelly bushing
 EGL   .F           2686.0000                : Ground level
 EDF   .F           0.0000                   : Drilling floor
 EPD   .F           2686.0000                : Permanent datum
 TD    .F           3750.0000                : Total depth
 DATE  .mm/dd/yyyy  OCT-19-1964              : Date Logged
 DD    .ft          3750                     : Depth Driller
 DL    .ft          3761                     : Depth Logger
 BLI   .ft          3750                     : Bottom Log Interval
 TLI   .ft          466                      : Top Log Interval
 CTD1  .ft          466                      : Casing Driller 1
 CTL1  .ft          466                      : Casing Logger 1
 BS    .inch        7 7/8                    : Bit Size
 DFT   .            POLY PLASTIC             : Type Fluid In Hole
 DFD   .lb/gal      10.9                     : Mud Weight
 DFV   .sec         74                       : Viscosity
 DFPH  .            9.5                      : pH
 DFL   .gal         3.2                      : Fluid Loss
 RM    .ohmm        1.51                     : Rm
 EMT   .F           67                       : Rm Meas. Temp.
 RMF   .ohmm        1.05                     : Rmf
 MFT   .F           80                       : Rmf Meas. Temp.
 RMC   .ohmm        3.0                      : Rmc
 MCST  .F           78                       : Rmc Meas. Temp.
 RMB   .ohmm        1.18                     : Rm. At BHT
 BHT   .F           86                       : BHT.
~TOPS_Definition
 TOPN.        :  Top Name     {S} 
 TOPT.F       :  Top Depth    {F} 
~TOPS_Data | TOPS_Definition
 Kpakowki             865.2  
 Kmilk_rv             1029.9  
 Kcolorado            1423.9  
 Kmed_hat             1583.0  
 K2nd_ws              2319.9  
 K2WS_SS_CW           2371.4  
 KBFS_CW              2584.0  
 Kbfs                 2584.0  
 Kbow_isl             2659.4  
 Kbi_ss               2685.4  
 Kbsl_colo            3085.0  
 Kmannvl              3101.4  
 Kmannvl_CW           3101.7  
 Kmannvl_UBeow CLNY MKR 3181.4  
 KMNVL_MID MKR - BROWN PICK_CW  3260.8  
 MNVL Teal Marker     3327.4  
 Kmann_GP CH Llithic_TOP(Green) 3378.9  
 Kmann_GP CH Lithic_Base 3446.5  
 KmannUmkr            3448.2  
 Kglauc_ss            3494.4  
 KGLAUC_SS_CW         3496.1  
 KglaucCHSS           3516.7  
 Kglauc CHSS Base     3597.8  
 Kostracod            3600.1  
 Ksunburst            3602.7  
 KSunburst CH Sand    3628.0  
 MLivingstn_CW        3735.9  
 Mlivngstn            3737.9  
~Ascii       DEPTH           SP           SN           LN           GR           DT
# ...
     1534.0000       -33.1750        18.0500        13.6830       127.2420        98.5300
     1534.5000       -33.1610        17.7360        13.4120       124.4250        99.2510
     1535.0000       -33.1880        17.3060        13.1640       126.6650        99.3130
     1535.5000       -33.0210        16.9060        12.9040       129.0030        99.2130
     1536.0000       -31.5800        16.4970        12.6490       131.4520        98.7150
     1536.5000       -31.1500        16.0810        12.3950       133.5810        98.5160
     1537.0000       -31.1520        15.7610        12.1330       132.9320        97.7190
     1537.5000       -31.4680        15.8630        11.9230       130.1030        97.2710
     1538.0000       -32.0630        16.0330        11.9980       131.5340        96.9220
     1538.5000       -32.3470        16.1920        12.0970       132.7140        96.8230
     1539.0000       -32.7330        16.3630        12.1950       127.3690        96.9220
     1539.5000       -32.6770        16.4830        12.2890       128.4070        97.3360
     1540.0000       -32.5620        16.4090        12.3890       132.2770        97.8440
     1540.5000       -32.4330        16.3280        12.4140       138.5920        98.4160
     1541.0000       -32.3880        16.2450        12.3250       135.0690        98.9140
     1541.5000       -32.4620        16.1660        12.2460       128.2920        99.4120
     1542.0000       -32.5180        16.0780        12.1630       130.2840        99.6120
     1542.5000       -32.5840        16.0360        12.0890       130.2130        99.5120
     1543.0000       -32.6460        16.1660        11.9810       125.3730        99.3130
     1543.5000       -32.7080        16.1810        11.8850       123.4030        99.3130
     1544.0000       -32.7630        16.1780        11.7880       126.3250        99.3130
     1544.5000       -32.6800        16.1380        11.6920       128.4900        99.3130
     1545.0000       -32.6250        16.0870        11.5890       130.2450        99.4120
     1545.5000       -32.3580        16.0300        11.5780       128.5490        99.6120
     1546.0000       -31.9360        15.9890        11.5760       130.0190        99.5120
     1546.5000       -31.5120        15.9130        11.5830       132.5810        99.5120
     1547.0000       -31.2220        16.0270        11.5650       134.1990        99.4120
     1547.5000       -31.2870        16.4000        11.7050       132.2550        99.2130
     1548.0000       -31.7690        16.7470        12.0480       130.1720        98.2170
     1548.5000       -32.4350        17.1120        12.3730       126.3880        97.1390
     1549.0000       -32.9930        17.4630        12.7080       123.1410        95.9880
     1549.5000       -33.2060        17.8310        13.0390       123.0060        94.8370
     1550.0000       -32.9870        18.1500        13.3690       126.7240        94.6310
     1550.5000       -32.6910        18.1940        13.7080       121.4230        94.8310
     1551.0000       -32.5100        18.1660        14.0020       122.2170        95.2770
     1551.5000       -32.2950        18.3620        14.0620       124.3410        95.8520
     1552.0000       -32.1510        18.7820        14.0850       127.5180        96.4280
     1552.5000       -32.1430        19.0420        14.1820       124.1070        97.0040
     1553.0000       -32.1100        18.7190        14.1080       119.4400        97.5790
     1553.5000       -32.0880        18.3500        13.7540       125.2450        98.2170
     1554.0000       -32.0630        17.9920        13.4010       129.1740        98.5190
     1554.5000       -32.0340        17.6310        13.0450       128.2210        98.6160
     1555.0000       -32.0170        17.2700        12.6950       125.8660        98.4160
     1555.5000       -31.9770        16.9100        12.3330       125.6460        98.4810
     1556.0000       -31.9140        16.5480        12.0540       129.0310        98.8360
     1556.5000       -31.2950        16.1900        11.9250       122.9020        99.1920
     1557.0000       -30.9320        15.8340        11.8130       116.2520        99.5470
     1557.5000       -30.8150        15.6760        11.7030       120.1680        99.7110
     1558.0000       -30.8810        15.6190        11.5910       122.3050        99.2850
     1558.5000       -31.0280        15.5390        11.4720       124.7940        98.8780
     1559.0000       -31.1030        15.4740        11.4010       122.7020        98.3170
     1559.5000       -31.4080        15.3730        11.3360       122.6250        98.9190
     1560.0000       -31.8280        15.2660        11.2580       123.9660        99.8940
     1560.5000       -32.2550        15.0750        11.2170       124.9330       100.7070
     1561.0000       -32.2180        14.8740        11.2190       126.0980       100.4700
     1561.5000       -31.9870        14.6860        11.2360       124.3020       100.2670
     1562.0000       -32.1940        14.7650        11.2760       121.4960       100.1100
     1562.5000       -32.3500        14.8940        11.3230       118.6200        99.9600
     1563.0000       -32.5480        15.0160        11.3270       118.1180        99.9100
     1563.5000       -32.4720        15.1190        11.2150       127.8690       100.3090
     1564.0000       -32.3270        14.9910        11.1310       126.0290       102.6990
     1564.5000       -32.1900        14.8310        11.0360       115.4070       102.1390
     1565.0000       -32.1940        14.6760        10.9530       117.0030       100.7170
     1565.5000       -32.2360        14.5210        10.8530       119.2550        99.2950
     1566.0000       -32.2630        14.3590        10.8560       121.3820        97.8730
     1566.5000       -32.3040        14.2420        10.9490       123.1420        96.4500
     1567.0000       -32.3270        14.3820        11.0260       122.0510        95.0280
     1567.5000       -32.3640        14.5320        11.1080       120.5360        92.8390
     1568.0000       -32.0810        14.6880        11.1490       122.4900        93.1120
     1568.5000       -32.1750        14.7320        11.0980       126.1320        93.7040
     1569.0000       -32.7260        14.6920        11.0830       125.4130        94.2970
     1569.5000       -33.1920        14.6760        11.1520       122.2840        94.8900
     1570.0000       -33.7200        14.6350        11.1880       119.6370        95.4820
     1570.5000       -34.0990        14.4350        11.2600       116.7830        96.3250
     1571.0000       -33.7920        14.2420        11.1290       113.9240        96.0900
     1571.5000       -33.5930        14.0540        10.8840       112.0520        95.6830
     1572.0000       -33.4520        13.8370        10.6830       116.5100        95.2770
     1572.5000       -33.2910        13.7420        10.4450       119.6930        94.8710
     1573.0000       -33.1730        13.7380        10.4150       117.2730        94.4640
     1573.5000       -33.1700        13.7650        10.4200       114.1470        94.3330
     1574.0000       -33.1610        13.8150        10.4200       115.1770        94.0340
     1574.5000       -33.1750        13.8940        10.4750       119.3580        96.2390
     1575.0000       -33.2510        13.9850        10.5470       111.1750        98.5160
     1575.5000       -33.7970        14.0740        10.6140       113.5650        98.7150
     1576.0000       -33.5890        14.1660        10.7170       118.2880        97.9410
     1576.5000       -33.3110        14.2660        10.8600       122.1260        96.9420
     1577.0000       -33.3180        14.3830        11.0350       122.9090        95.9430
     1577.5000       -33.0060        14.4900        11.4920       124.8390        94.9440
     1578.0000       -32.7940        14.6630        12.0010       124.7170        93.9450
